Place ID	Place Name	Place Owner	Location	Longitude	Latitude
21887	 "Kingston"	Greater Geelong City	61 Tuckfield Street OCEAN GROVE, Greater Geelong City	144.5350120	-38.2627040
20786	 Medical Rooms	Greater Geelong City	44 Swanston Street GEELONG, Greater Geelong City	144.3676470	-38.1499280
21871	 Residence	Greater Geelong City	53 Tucker Street BREAKWATER, Greater Geelong City	144.3672950	-38.1808930
21368	 Residence	Greater Geelong City	30 Williams Road MOUNT DUNEED, Greater Geelong City	144.3207540	-38.2341960
20898	 Residence	Greater Geelong City	64 Sydney Parade GEELONG, Greater Geelong City	144.3682070	-38.1525750
16586	 Residence	Greater Geelong City	13 Virginia Street NEWTOWN, Greater Geelong City	144.3509690	-38.1502340
16588	 Residence	Greater Geelong City	17 Virginia Street NEWTOWN, Greater Geelong City	144.3506710	-38.1501990
16597	"Acton", Residence	Greater Geelong City	41 Virginia Street NEWTOWN, Greater Geelong City	144.3487130	-38.1499670
21503	"Allambie"	Greater Geelong City	412 Wallington Rd WALLINGTON, Greater Geelong City	144.5024074	-38.2351259
15767	"Allington", house including interior	Greater Geelong City	274 Latrobe Terrace NEWTOWN, Greater Geelong City	144.3520120	-38.1495860
19755	"Antrim" - Residence	Greater Geelong City	167 McKillop Street GEELONG EAST, Greater Geelong City	144.3695640	-38.1565540
21389	"Applegarth", Residence	Greater Geelong City	1662 Bellarine Hwy MARCUS HILL, Greater Geelong City	144.5546528	-38.2325406
4742	"AQUA PROFONDA" SIGN, FITZROY POOL	Heritage Victoria	 ALEXANDRA PARADE FITZROY, Yarra City	144.98049	-37.79394
15291	"Argyle Hotel"	Greater Geelong City	30 Aberdeen Street GEELONG WEST, Greater Geelong City	144.3495760	-38.1466360
18545	"Ariston" and "Jesmond" House	Greater Geelong City	32 Eastern Beach Road GEELONG, GREATER GEELONG CITY	144.3668374	-38.1463660
21747	"Armytage house"	Greater Geelong City	263 Pakington  Street NEWTOWN, Greater Geelong City	144.3464750	-38.1491420
16269	"Arrandoon"	Greater Geelong City	112 Prospect Road NEWTOWN, Greater Geelong City	144.3416320	-38.1514770
13664	"ATHLONE" RUINS	Heritage Victoria	 MIDLAND HIGHWAY GUILDFORD, Mount Alexander Shire	144.15783	-37.15641
21717	"Avalon", Residence	Greater Geelong City	480 Avalon Road AVALON, Greater Geelong City	144.4227550	-38.0811760
21628	"Avondale"  Residence	Greater Geelong City	2 Church Road BELLARINE, Greater Geelong City	144.6179746	-38.1341182
21342	"Barrabool", house 	Greater Geelong City	13 Pepperdine Way HIGHTON, Greater Geelong City	144.3090610	-38.1829880
16328	"Barwon Bank"	Greater Geelong City	35 Riversdale Road NEWTOWN, Greater Geelong City	144.3383234	-38.1618298
15700	"Barwon Grange" house including interior	Greater Geelong City	25 Fernleigh Street NEWTOWN, Greater Geelong City	144.3476420	-38.1625840
15507	"Bayswater", Residence	Greater Geelong City	4 Bayswater Road NEWTOWN, Greater Geelong City	144.3328170	-38.1545890
44647	"Bell Terrace" (1-4 units)	Greater Geelong City	15 Pevensey Crescent Geelong, Greater Geelong City	144.3722680	-38.1503540
20367	"Bell's Terrace"  9-15 Units 	Greater Geelong City	13 Pevensey Crescent GEELONG, Greater Geelong City	144.3722850	-38.1502980
20644	"Belleville"	Greater Geelong City	350 Ryrie Street GEELONG, Greater Geelong City	144.3694220	-38.1522780
27093	"Belmont Heights Neighbourhood Park"	Greater Geelong City	Regent Street (Cnr Amundsden Street) Belmont, Greater Geelong City	144.3397620	-38.1716670
16590	"Belvedere", house	Greater Geelong City	25 Virginia Street NEWTOWN, Greater Geelong City	144.3501380	-38.1501360
21716	"Black Swan" Hotel (Former)	Greater Geelong City	169 Boundary Road WHITTINGTON, Greater Geelong City	144.3840580	-38.1724890
21548	"Bonnyvale"	Greater Geelong City	252 Shell Road OCEAN GROVE, Greater Geelong City	144.5599483	-38.2598890
15391	"Brooklyn", Special Accommodation Resdience	Greater Geelong City	132 Aphrasia Street NEWTOWN, Greater Geelong City	144.3320400	-38.1493600
21540	"Carinya"	Greater Geelong City	12 Rhinds Road WALLINGTON, Greater Geelong City	144.5062721	-38.2244790
15690	"Carinya" Residence	Greater Geelong City	88 Fairview Avenue NEWTOWN, Greater Geelong City	144.3371630	-38.1543990
21381	"Carlyle" Residence	Greater Geelong City	2041 Bellarine Hwy MARCUS HILL, Greater Geelong City	144.5920988	-38.2518906
15803	"Carlyon" (Office)	Greater Geelong City	259 Latrobe Terrace GEELONG, Greater Geelong City	144.3528080	-38.1482620
21427	"Carrick"	Greater Geelong City	30 The Esplanade PORTARLINGTON, Greater Geelong City	144.6655990	-38.1128770
16801	"Chepstowe" , Residence	Greater Geelong City	16 Beach Parade DRUMCONDRA, Greater Geelong City	144.3546770	-38.1310420
16427	"Chesterfield" Nursing Home	Greater Geelong City	345 Shannon Avenue NEWTOWN, Greater Geelong City	144.3340200	-38.1520360
30086	"Claremont"	Greater Geelong City	28 Seaview Parade BELMONT, Greater Geelong City	144.3452210	-38.1688310
20893	"Clifton"	Greater Geelong City	38 Sydney Avenue GEELONG, Greater Geelong City	144.3717120	-38.1532270
16949	"Clonard" Residence	Greater Geelong City	225 Church Street HAMLYN HEIGHTS, Greater Geelong City	144.3309827	-38.1297410
16486	"Clyde"	Greater Geelong City	21 Skene Street NEWTOWN, Greater Geelong City	144.3496670	-38.1483760
26518	"Condie" residence	Greater Geelong City	370 Hamilton Highway FYANSFORD, Greater Geelong City	144.2769890	-38.1339050
18568	"Corio Villa", house including interior	Greater Geelong City	56 Eastern Beach Road GEELONG, GREATER GEELONG CITY	144.3721350	-38.1481200
15651	"Coronal"	Greater Geelong City	1 Coronal Avenue NEWTOWN, Greater Geelong City	144.3194480	-38.1413810
15652	"Coronal', house including interior	Greater Geelong City	7 Coronal Avenue NEWTOWN, Greater Geelong City	144.3187480	-38.1417970
21489	"Coryule", homestead including interior	Greater Geelong City	1 McDermott Road DRYSDALE, Greater Geelong City	144.5388178	-38.1698656
16241	"Cottage Craft"	Greater Geelong City	21 Pleasant Street NEWTOWN, Greater Geelong City	144.3452820	-38.1515470
21700	"Craigton" Residence	Greater Geelong City	365 Ballan Road MOORABOOL, Greater Geelong City	144.2929670	-38.0678583
15745	"Culloden Castle" (former Hotel) including interior	Greater Geelong City	226 Latrobe Terrace GEELONG WEST, Greater Geelong City	144.3528560	-38.1451640
21458	"Dallimores Tea Room"	Greater Geelong City	23 High Street DRYSDALE, Greater Geelong City	144.5697500	-38.1741960
17434	"Delta House"	Greater Geelong City	14 Kooyong Road DRUMCONDRA, Greater Geelong City	144.3522470	-38.1354470
16186	"Duke of Wellington" Hotel (former) 	Greater Geelong City	281 Pakington  Street NEWTOWN, Greater Geelong City	144.3459040	-38.1522300
21358	"Dumbarton"	Greater Geelong City	6 Thomas Street GEELONG WEST, Greater Geelong City	144.3426890	-38.1427630
16551	"Edgecumbe" (now Geelong Workers' Club)	Greater Geelong City	12 Skene Street NEWTOWN, Greater Geelong City	144.3508010	-38.1482720
21541	"Edina"	Greater Geelong City	11 St Leonards Pde ST LEONARDS, Greater Geelong City	144.7171130	-38.1737120
18645	"Eudoxus", prefabricated iron house including interior	Greater Geelong City	34 Fenwick Street GEELONG, Greater Geelong City	144.3542400	-38.1485450
16493	"Eumeralla"	Greater Geelong City	35 Skene Street NEWTOWN, Greater Geelong City	144.3481570	-38.1481930
15346	"Eyethorne", residence	Greater Geelong City	35 Aphrasia Street NEWTOWN, Greater Geelong City	144.3418220	-38.1507780
21123	"Fernshaw", house including interior	Greater Geelong City	4 Western Beach GEELONG, Greater Geelong City	144.3553368	-38.1376014
21125	"Fernshaw", house including interior	Greater Geelong City	4  Western Beach GEELONG, GREATER GEELONG CITY	144.3553368	-38.1376014
21124	"Fernshaw", Residence	Greater Geelong City	4 Western Beach GEELONG, Greater Geelong City	144.3553368	-38.1376014
26543	"Flour Mill House"	Greater Geelong City	2 Atkins Street Fyansford, Greater Geelong City	144.3098410	-38.1408900
21453	"Fox Hut"	Greater Geelong City	52 Hardings Rd WALLINGTON, Greater Geelong City	144.5063020	-38.2405260
21742	"Frogmore", house and outbuildings	Greater Geelong City	425 Hamilton Highway FYANSFORD, Greater Geelong City	144.2840850	-38.1369160
17861	"Galashiels" Residence	Greater Geelong City	39 Villamanta Street GEELONG WEST, Greater Geelong City	144.3487670	-38.1460960
20610	"Glen Alvie"	Greater Geelong City	246 Ryrie Street GEELONG, Greater Geelong City	144.3633250	-38.1505460
21148	"Glenburnie" residence	Greater Geelong City	54 Western Beach GEELONG, Greater Geelong City	144.3571427	-38.1407232
20433	"Glendining House" Residence and Surgery	Greater Geelong City	6 Ryrie Street GEELONG, Greater Geelong City	144.3531070	-38.1476370
21690	"Glenpanyal" - Residence	Greater Geelong City	22 Glengate Street HAMLYN HEIGHTS, Greater Geelong City	144.3260160	-38.1162080
18903	"Golden Age", Hotel including interior - Now The Max	Greater Geelong City	2 Gheringhap Street GEELONG, Greater Geelong City	144.3593700	-38.1434970
16305	"Grantham"	Greater Geelong City	13 Retreat Road NEWTOWN, Greater Geelong City	144.3449830	-38.1502610
21296	"Greystanes", Residence	Greater Geelong City	2 Brassey Avenue HIGHTON, Greater Geelong City	144.3165610	-38.1781830
16495	"Hawthorne"	Greater Geelong City	39 Skene Street NEWTOWN, Greater Geelong City	144.3474880	-38.1481150
17471	"Hillhurst"	Greater Geelong City	29 Lawton Avenue GEELONG WEST, Greater Geelong City	144.3455980	-38.1387860
21880	"Honddu Villas", semi-detached villas including interior 	Greater Geelong City	43 McKillop Street GEELONG, Greater Geelong City	144.3564760	-38.1528040
21881	"Honddu Villas", semi-detached villas including interior 	Greater Geelong City	43 McKillop Street GEELONG, Greater Geelong City	144.3564760	-38.1528040
19658	"Honddu Villas", semi-detached villas including interior	Greater Geelong City	41 McKillop Street GEELONG, Greater Geelong City	144.3563680	-38.1527730
19660	"Honddu Villas", semi-detached villas including interior  	Greater Geelong City	43 McKillop Street GEELONG, Greater Geelong City	144.3564760	-38.1528040
15755	"Ingliston", Residence	Greater Geelong City	264 Latrobe Terrace NEWTOWN, Greater Geelong City	144.3521780	-38.1487010
21692	"Innisfail", house	Greater Geelong City	45 Cross Street BATESFORD, Greater Geelong City	144.2816200	-38.0926260
26512	"Jeancourt' residence	Greater Geelong City	34 Golf Links Road BARWON HEADS, Greater Geelong City	144.4876260	-38.2805860
15262	"Kainga"  Residence	Greater Geelong City	67 Aberdeen Street NEWTOWN, Greater Geelong City	144.3460920	-38.1468030
21675	"Kalimnar" Residence	Greater Geelong City	61- 65 Kensington Road LEOPOLD, Greater Geelong City	144.4652890	-38.1834820
16350	"Kanimbula"	Greater Geelong City	31 Roebuck Street NEWTOWN, Greater Geelong City	144.3492280	-38.1492480
15327	"Kelvin"	Greater Geelong City	11 Aphrasia Street NEWTOWN, Greater Geelong City	144.3447640	-38.1511290
15387	"Kent Cottage" Residence	Greater Geelong City	131 Aphrasia Street NEWTOWN, Greater Geelong City	144.3330130	-38.1497560
16248	"Kirrewur Court", Reception Centre	Greater Geelong City	77 Prospect Road NEWTOWN, Greater Geelong City	144.3452920	-38.1521690
15988	"Ky-e-Lah", Residence	Greater Geelong City	195 Noble Street NEWTOWN, Greater Geelong City	144.3337060	-38.1527180
15674	"Laburnum" Residence	Greater Geelong City	9 Elderslie Terrace NEWTOWN, Greater Geelong City	144.3281840	-38.1422870
21624	"Lake View", Homestead	Greater Geelong City	202 Matthews Road LEOPOLD, Greater Geelong City	144.4423093	-38.2213339
27998	"Laneway"	Greater Geelong City	"Laneway" Amundsen Street Belmont, Greater Geelong City	144.3394440	-38.1732590
19578	"Leeton" Residence	Greater Geelong City	57 Maud Street GEELONG, Greater Geelong City	144.3587800	-38.1546880
16240	"Lemea"	Greater Geelong City	19 Pleasant Street NEWTOWN, Greater Geelong City	144.3452880	-38.1514360
20029	"Leyton" and "Rochford" villas	Greater Geelong City	224 Moorabool Street GEELONG, Greater Geelong City	144.3583900	-38.1517800
20031	"Leyton" and "Rochford", villas including interior	Greater Geelong City	226 Moorabool Street GEELONG, Greater Geelong City	144.3583630	-38.1518370
27128	"Lezayre"	Greater Geelong City	126 Roslyn Road Belmont, Greater Geelong City	144.3323950	-38.1740050
26732	"Llanberris"	Greater Geelong City	30 Western Beach GEELONG, Greater Geelong City	144.3560063	-38.1390654
17531	"Lunan" house - Residence	Greater Geelong City	24 Lunan Avenue DRUMCONDRA, Greater Geelong City	144.3545460	-38.1287670
21703	"Lynnburn" Homestead and outbuildings	Greater Geelong City	600 Ballarat Road BATESFORD, Greater Geelong City	144.2852450	-38.0950170
28714	"Macintyre Foot Bridge"	Greater Geelong City	Over Barwon River Belmont, Greater Geelong City	144.3426660	-38.1755870
15881	"Mandalay"	Greater Geelong City	6 Mercer Parade NEWTOWN, Greater Geelong City	144.3439970	-38.1527570
21318	"Maxwelton" residence	Greater Geelong City	105 Hitchcock Avenue BARWON HEADS, Greater Geelong City	144.4923870	-38.2766440
21623	"Melaleuca", house including interior	Greater Geelong City	221 Matthews Road LEOPOLD, Greater Geelong City	144.4422440	-38.2229870
18809	"Merchiston Hall", house including interior	Greater Geelong City	2 Garden Street GEELONG EAST, Greater Geelong City	144.3740380	-38.1484530
26972	"Miller Homes" - Units	Greater Geelong City	7 (Units 1-12) Culbin Avenue Belmont, Greater Geelong City	144.3412960	-38.1696730
15372	"Milton"  Residence	Greater Geelong City	14 Aphrasia Street NEWTOWN, Greater Geelong City	144.3442220	-38.1507760
26523	"Monomeeth"	Greater Geelong City	33a Flinders Parade Barwon Heads, Greater Geelong City	144.4946890	-38.2797080
44247	"Moondara" - residence	Greater Geelong City	57 Seaview Avenue Barwon Heads, Greater Geelong City	144.4947220	-38.2753600
21797	"Morongo" Presbyterian Girls' School, original 1859 building including interior Nor Kardinia Int College	Greater Geelong City	205 Ballarat Road BELL POST HILL, Greater Geelong City	144.3263160	-38.1108980
21335	"Mount Pleasant"	Greater Geelong City	235 Mount Pleasant Road, HIGHTON, Greater Geelong City	144.3153966	-38.1673704
21705	"Narada"	Greater Geelong City	130 Mount Road ANAKIE, Greater Geelong City	144.2792140	-37.9180670
21655	"Nargoondy"	Greater Geelong City	462 Tower Road PORTARLINGTON, Greater Geelong City	144.6812654	-38.1281320
21289	"Newlands" Homestead, Residence	Greater Geelong City	670 Barrabool Road CERES, Greater Geelong City	144.2582890	-38.1717500
16567	"Newtown Brae"	Greater Geelong City	13 Stephen Street NEWTOWN, Greater Geelong City	144.3323300	-38.1484910
21726	"Osborne House"	Greater Geelong City	51 Swinburne Street NORTH GEELONG, Greater Geelong City	144.3579360	-38.1198190
15497	"Peppercorn Cottage" Residence	Greater Geelong City	305 Autumn Street NEWTOWN, Greater Geelong City	144.3284610	-38.1409550
26529	"Petriwil"	Greater Geelong City	75  Clarkes Road FYANSFORD, Greater Geelong City	144.2986752	-38.1376732
17151	"Pineville" Private Nursing Home	Greater Geelong City	2 Gertrude Street GEELONG WEST, Greater Geelong City	144.3467880	-38.1446670
21721	"Pirra", homestead including interior	Greater Geelong City	110 Windermere Road LARA, Greater Geelong City	144.4089220	-38.0096740
21344	"Prospect", homestead including interior	Greater Geelong City	50 Prospect Road CERES, Greater Geelong City	144.2816810	-38.1756530
27187	"Radstock"	Greater Geelong City	89 Shackleton Street Belmont, Greater Geelong City	144.3320440	-38.1723880
16298	"Raith"	Greater Geelong City	2 Raith Terrace NEWTOWN, Greater Geelong City	144.3235610	-38.1419340
16538	"Rannoch"	Greater Geelong City	50 Skene Street NEWTOWN, Greater Geelong City	144.3484950	-38.1479990
16425	"Redpath's Antiques"	Greater Geelong City	327 Shannon Avenue NEWTOWN, Greater Geelong City	144.3343520	-38.1502800
16335	"Riverdale"	Greater Geelong City	22 Riversdale Road NEWTOWN, Greater Geelong City	144.3398200	-38.1608810
15261	"Rosnashane", Reception Centre	Greater Geelong City	11 Aberdeen Street NEWTOWN, Greater Geelong City	144.3504410	-38.1473870
27183	"Royd Grange"	Greater Geelong City	2 Royd Grange Court Belmont, Greater Geelong City	144.3390010	-38.1694790
44407	"Rushbrooks"	Greater Geelong City	149-151 Pakington Street  Geelong West, Greater Geelong City	144.3481420	-38.1404720
16090	"Rushbrooks"	Greater Geelong City	149 Pakington  Street GEELONG WEST, Greater Geelong City	144.3481420	-38.1404720
16091	"Rushbrooks"	Greater Geelong City	1/149 Pakington  Street GEELONG WEST, Greater Geelong City	144.3481420	-38.1404720
16092	"Rushbrooks"	Greater Geelong City	149A Pakington  Street GEELONG WEST, Greater Geelong City	144.3481420	-38.1404720
16093	"Rushbrooks"	Greater Geelong City	149 Pakington  Street GEELONG WEST, Greater Geelong City	144.3481420	-38.1404720
15756	"Sarnia", residence	Greater Geelong City	266 Latrobe Terrace NEWTOWN, Greater Geelong City	144.3523067	-38.1489208
21323	"Shoubra", house including interior	Greater Geelong City	6 Keram Crescent HIGHTON, Greater Geelong City	144.3163520	-38.1732960
108353	"Sithney", 5 Burke Street, ST ARNAUD	Northern Grampians Shire	5 Burke Street ST ARNAUD, NORTHERN GRAMPIANS SHIRE	143.26185	-36.6186
21551	"Soho"	Greater Geelong City	1 Soho Road DRYSDALE, Greater Geelong City	144.6207640	-38.1804590
15757	"Somerset", Residence	Greater Geelong City	270 Latrobe Terrace NEWTOWN, Greater Geelong City	144.3521170	-38.1490220
26949	"South Barwon Reserve Memorial"	Greater Geelong City	137 Barwon Heads Road BELMONT, GREATER GEELONG CITY	144.3540548	-38.1819273
21515	"Spray Farm", homestead and stables including interior	Greater Geelong City	2261 Portarlington Rd BELLARINE, Greater Geelong City	144.6215021	-38.1305466
21385	"Springfield", Residence	Greater Geelong City	532 Bellarine Hwy LEOPOLD, Greater Geelong City	144.4394150	-38.1996370
21569	"St Albans" homestead including interior	Greater Geelong City	6 Homestead Drive WHITTINGTON, Greater Geelong City	144.3886820	-38.1887950
26668	"St Matthews Kindergarten"	Greater Geelong City	230 McKillop Street Geelong East, Greater Geelong City	144.3734000	-38.1580880
15753	"St. Leonards", Residence including interior	Greater Geelong City	262 (1) Latrobe Terrace GEELONG WEST, Greater Geelong City	144.3539485	-38.1392623
15754	"St. Leonards", Residence including interior	Greater Geelong City	262 (2) Latrobe Terrace NEWTOWN, Greater Geelong City	144.3539485	-38.1392623
21706	"Staughton Vale"	Greater Geelong City	750 Staughton Vale Rd STAUGHTON VALE, Greater Geelong City	144.2890794	-37.8288991
21688	"Suma Park", Residence	Greater Geelong City	2121 Bellarine Hwy MARCUS HILL, Greater Geelong City	144.5950006	-38.2536371
17823	"Tandarra"	Greater Geelong City	71 The Esplanade DRUMCONDRA, Greater Geelong City	144.3565430	-38.1290220
16470	"The Hawthornes" (Former Presbyterian Manse)	Greater Geelong City	1 Skene Street NEWTOWN, Greater Geelong City	144.3516540	-38.1490330
15390	"The Heights" Residence including interior	Greater Geelong City	140 Aphrasia Street NEWTOWN, Greater Geelong City	144.3304660	-38.1493560
16821	"Thuruna" , Residence	Greater Geelong City	17 Bell Parade DRUMCONDRA, Greater Geelong City	144.3538630	-38.1280010
21374	"Toongabbie" Residence	Greater Geelong City	161 Ash Road LEOPOLD, Greater Geelong City	144.4662296	-38.2031664
21480	"Toorang", homestead	Greater Geelong City	401 Melaluka Road LEOPOLD, Greater Geelong City	144.4506743	-38.2108652
15752	"Tooronga" Residence	Greater Geelong City	258 Latrobe Terrace NEWTOWN, Greater Geelong City	144.3522780	-38.1481750
15569	"Torbank", Residence	Greater Geelong City	39 Buckland Avenue NEWTOWN, Greater Geelong City	144.3479330	-38.1517440
15840	"Toren", house	Greater Geelong City	36 Laurel Bank Parade NEWTOWN, Greater Geelong City	144.3477060	-38.1504140
20834	"Trawawool" house	Greater Geelong City	108 Swanston Street GEELONG, Greater Geelong City	144.3644610	-38.1570940
20048	"Vectis"(Former George and Dragon Hotel)	Greater Geelong City	310 Moorabool Street GEELONG, Greater Geelong City	144.3572700	-38.1542290
16174	"Waitaki"	Greater Geelong City	251 Pakington  Street NEWTOWN, Greater Geelong City	144.3466730	-38.1480640
20664	"Wandsworth"	Greater Geelong City	371 Ryrie Street GEELONG, Greater Geelong City	144.3716830	-38.1524980
17813	"Warana"	Greater Geelong City	49 The Esplanade DRUMCONDRA, Greater Geelong City	144.3558670	-38.1312970
112260	"Wharrie", house, 40 Darlington Road, STAWELL	Northern Grampians Shire	40 Darlington Road STAWELL, NORTHERN GRAMPIANS SHIRE	142.78174	-37.04847
15325	"Wimmera	Greater Geelong City	356 Aberdeen Street GEELONG WEST, Greater Geelong City	144.3303500	-38.1446000
20647	"Woodlands"	Greater Geelong City	354 Ryrie Street GEELONG, Greater Geelong City	144.3701690	-38.1524890
21719	"Wooloomanata", Residence	Greater Geelong City	1580 Bacchus Marsh Road CORIO, Greater Geelong City	144.3589620	-38.0666210
26496	"Wurrok"	Greater Geelong City	7 Flinders Parade Barwon Heads, Greater Geelong City	144.4936870	-38.2818660
16605	"Yemoneit", Residence	Greater Geelong City	51 Virginia Street NEWTOWN, Greater Geelong City	144.3474970	-38.1498190
104914	'Allanvale', Allanvale Road, GREAT WESTERN	Northern Grampians Shire	Allanvale Road GREAT WESTERN, NORTHERN GRAMPIANS SHIRE	142.91882	-37.17934
112258	'Alvie', House, 39 Darlington Road, STAWELL	Northern Grampians Shire	39 Darlington Road STAWELL, NORTHERN GRAMPIANS SHIRE	142.78144	-37.04834
16173	'Ariston' child care centre	Greater Geelong City	245 Pakington  Street NEWTOWN, Greater Geelong City	144.3467750	-38.1475160
108180	'Banavie', shearing shed, Donald Stawell Road, MARNOO	Northern Grampians Shire	Donald Stawell Road MARNOO, NORTHERN GRAMPIANS SHIRE	142.87154	-36.6796
104781	'Barrani', Burrum-Lawler Road, BANYENA	Northern Grampians Shire	Burrum-Lawler Road BANYENA, NORTHERN GRAMPIANS SHIRE	142.7317	-36.55022
8297	'BLOWHOLE' DIVERSION CUTTING	Heritage Victoria	 BLOWHOLE TRACK HEPBURN SPRINGS, Hepburn Shire	144.11707	-37.30957
108248	'Bonnie Brae', Avon Plains Road , RICH AVON EAST	Northern Grampians Shire	Avon Plains Road  RICH AVON EAST, NORTHERN GRAMPIANS SHIRE	142.89554	-36.53999
15626	'Bornemouth" - Residence	Greater Geelong City	11 Claremont Avenue NEWTOWN, Greater Geelong City	144.3364130	-38.1516390
104798	'Bryn Avon', Donald -Stawell Road, CALLAWADDA	Northern Grampians Shire	Donald-Stawell Road CALLAWADDA, NORTHERN GRAMPIANS SHIRE	142.78557	-36.81935
108183	'Burrum', Marnoo Raluana Road, MARNOO	Northern Grampians Shire	Marnoo Raluana Road MARNOO, NORTHERN GRAMPIANS SHIRE	142.86906	-36.66872
108184	'Callamar', Marshalls Road, MARNOO	Northern Grampians Shire	Marshalls Road MARNOO, NORTHERN GRAMPIANS SHIRE	142.84937	-36.69792
1149	'CARINYA' LADSONS STORE	Heritage Victoria	2328 BEECHWORTH ROAD TARRAWINGEE, Wangaratta Rural City	146.45055	-36.38921
108227	'Carrs Plains' Homestead, Marnoo West Soldiers Road, MARNOO WEST	Northern Grampians Shire	Marnoo West Soldiers Road MARNOO WEST, NORTHERN GRAMPIANS SHIRE	142.78557	-36.72549
8296	'CHINESE' GARDENS	Heritage Victoria	 OFF TWENTIETH STREET HEPBURN SPRINGS, Hepburn Shire	144.12096	-37.29888
104819	'Dalyenong', Archdale Road , DALYENONG	Northern Grampians Shire	Archdale Road DALYENONG, NORTHERN GRAMPIANS SHIRE	143.40488	-36.79725
112722	'Diamond House' and adjacent house, 24 Seaby Street (corner Prince Street), STAWELL	Northern Grampians Shire	24 Seaby Street  (corner Prince Street) STAWELL, NORTHERN GRAMPIANS SHIRE	142.76808	-37.06007
104805	'Glynwyllyn', Morrl Morrl Road, CAMPBELLS BRIDGE	Northern Grampians Shire	Morrl Morrl Road CAMPBELLS BRIDGE, NORTHERN GRAMPIANS SHIRE	142.8802	-36.96862
6618	'HALFWAY HOUSE' COACH CHANGING STATION	Heritage Victoria	148 MAHONEYS RD LAKE MUNDI, Glenelg Shire	141.08468	-37.57243
105077	'Hermitage' Bed and Breakfast (former Salinger General Store), Main Street (Western Highway), GREAT WESTERN	Northern Grampians Shire	Western Highway GREAT WESTERN, NORTHERN GRAMPIANS SHIRE	142.84261	-37.14563
104803	'Kirkella' Homestead & outbuildings, Kirkella Road, CAMPBELLS BRIDGE	Northern Grampians Shire	Kirkella Road CAMPBELLS BRIDGE, NORTHERN GRAMPIANS SHIRE	142.82253	-36.96307
104773	'Lakeside', Coussens Road, AVON PLAINS	Northern Grampians Shire	Coussens Road AVON PLAINS, NORTHERN GRAMPIANS SHIRE	142.98589	-36.55466
22266	'Maritimo' Fence	Hobsons Bay City	8-9 The Strand WILLIAMSTOWN, Hobsons Bay City 	144.9011500	-37.8583670
104784	'Melrose' Residence, Glenorchy-Donald Road, BANYENA	Northern Grampians Shire	Glenorchy-Donald Road BANYENA, NORTHERN GRAMPIANS SHIRE	142.81654	-36.57223
22275	'Monomeath' - Williamstown & Westbourne Grammar School	Hobsons Bay City	67-68 The Strand WILLIAMSTOWN, Hobsons Bay City	144.8955860	-37.8499410
108545	'Montazah', House, 25 Dundas Street ST ARNAUD,	Northern Grampians Shire	25 Dundas Street ST ARNAUD, NORTHERN GRAMPIANS SHIRE	143.26138	-36.618
108181	'Oak Lea', Donald Stawell Road, MARNOO	Northern Grampians Shire	Donald Stawell Road MARNOO, NORTHERN GRAMPIANS SHIRE	142.87154	-36.6796
112293	'Oonadah', House, 15 Jennings Street, STAWELL	Northern Grampians Shire	15 Jennings Street STAWELL, NORTHERN GRAMPIANS SHIRE	142.77636	-37.0552
104779	'Rich Avon' Homestead & outbuildings, Rich Avon Road, AVON PLAINS	Northern Grampians Shire	Rich Avon Road AVON PLAINS, NORTHERN GRAMPIANS SHIRE	142.96614	-36.45151
22203	'Salisbury Buildings'	Hobsons Bay City	195-203 Nelson Place WILLIAMSTOWN, Hobsons Bay City	144.9025980	-37.8623580
111704	'St. Arnaud Produce Store', 135-137 Napier Street, ST ARNAUD	Northern Grampians Shire	135-137  Napier Street  ST ARNAUD, NORTHERN GRAMPIANS SHIRE	143.25463	-36.61262
21961	'Strachan, Murray and Shannon Woolstore (facades only)	Greater Geelong City	95 Malop Street GEELONG, Greater Geelong City	144.3622559	-38.1476984
113761	'Swanwater' Homestead & Cemetery, Sunraysia Highway, SWANWATER	Northern Grampians Shire	Sunraysia Highway SWANWATER, NORTHERN GRAMPIANS SHIRE	143.11885	-36.54468
104887	'Swinton', Glenorchy Donald Road, GLENORCHY	Northern Grampians Shire	Glenorchy Donald Road GLENORCHY, NORTHERN GRAMPIANS SHIRE	142.65557	-36.91041
104815	'Sycamores', Sycamores Road, CONCONGELLA	Northern Grampians Shire	Sycamores Road CONCONGELLA, NORTHERN GRAMPIANS SHIRE	142.83613	-37.03585
105135	'The Gap' Charcoal Pits, Mount Bolangum Flora and Fauna Reserve, Stuart Mill - Rostron Road, KANYA	Northern Grampians Shire	Stuart Mill - Rostron Road KANYA, NORTHERN GRAMPIANS SHIRE	142.99891	-36.78237
12142	'THE ISLAND' DIVERSION CUTTING	Heritage Victoria	24 KANGAROO GROUND-WARRANDYTE ROAD NORTH WARRANDYTE, Nillumbik Shire	145.22905	-37.73770
14969	'The Pines' Scout Camp	Hobsons Bay City	Altona Road ALTONA, Hobsons Bay City	144.8509915	-37.8577207
113780	'Tottington' Homestead and Outbuildings, Navarre Road, TOTTINGTON	Northern Grampians Shire	Navarre Road TOTTINGTON, NORTHERN GRAMPIANS SHIRE		
108182	'Wallalloo Park', Marnoo Kanya Road, MARNOO	Northern Grampians Shire	Marnoo Kanya Road MARNOO, NORTHERN GRAMPIANS SHIRE	142.96436	-36.70833
21149	'Warrain' Residence	Greater Geelong City	56 Western Beach GEELONG, Greater Geelong City	144.3573464	-38.1409276
15264	(Formerly Warrawitti")	Greater Geelong City	71 Aberdeen Street NEWTOWN, Greater Geelong City	144.3456010	-38.1467440
15060	1 Forster Street	Hobsons Bay City	1 Forster Street WILLIAMSTOWN, Hobsons Bay City	144.8919330	-37.8660600
61014	1 Gordon Street, Coburg	Moreland City	1 Gordon Street,Coburg, Moreland City	144.9475170	-37.7533410
61015	1 Lochinvar Street, Pascoe Vale South	Moreland City	1 Lochinvar Street,Pascoe Vale South, Moreland City	144.9449720	-37.7493320
61016	1 Phillips Street, Coburg	Moreland City	1 Phillips Street,Coburg, Moreland City	144.9537480	-37.7504760
61017	1 Somali Street, Pascoe Vale South	Moreland City	1 Somali Street,Pascoe Vale South, Moreland City	144.9391070	-37.7418850
61018	1 The Grove, Coburg	Moreland City	1 The Grove,Coburg, Moreland City	144.9657670	-37.7509610
119345	1 WARDE STREET	Heritage Victoria	1 WARDE STREET FOOTSCRAY, MARIBYRNONG CITY	144.90657	-37.79965
16641	1 Warwick Street	Greater Geelong City	1 Warwick Street NEWTOWN, Greater Geelong City	144.3271240	-38.1410810
21932	1 Warwick Street	Greater Geelong City	1 Warwick Street NEWTOWN, Greater Geelong City	144.3271240	-38.1410810
10061	1-17 A'BECKETT STREET	Heritage Victoria	1-17 A'BECKETT STREET MELBOURNE, Melbourne City	144.96305	-37.80883
9434	1-3 COVERLID PLACE	Heritage Victoria	1-3 COVERLID PLACE MELBOURNE, Melbourne City	144.96844	-37.81225
9008	1-5 EVANS LANE	Heritage Victoria	1-5 EVANS LANE MELBOURNE, Melbourne City	144.96859	-37.80899
8955	1-5 GUILDFORD LANE	Heritage Victoria	1-5 GUILDFORD LANE MELBOURNE, Melbourne City	144.96075	-37.81120
9785	1-5 QUEEN STREET	Heritage Victoria	1-5 QUEEN STREET MELBOURNE, Melbourne City	144.96203	-37.81878
10008	1-7 JEFFCOTT STREET	Heritage Victoria	1-7 JEFFCOTT STREET MELBOURNE, MELBOURNE CITY	144.95326	-37.81166
9059	1-7 MANTON LANE	Heritage Victoria	1-7 MANTON LANE MELBOURNE, Melbourne City	144.95537	-37.81382
9746	1-9 COLLINS STREET	Heritage Victoria	1-9 COLLINS STREET MELBOURNE, Melbourne City	144.97373	-37.81372
14448	1-9 LITTLE GEORGE STREET	Heritage Victoria	9 LITTLE GEORGE STREET FITZROY, Yarra City	144.97970	-37.80748
9458	10 BOURKE STREET	Heritage Victoria	10 BOURKE STREET MELBOURNE, Melbourne City	144.97256	-37.81123
61020	10 Gordon Street, Coburg	Moreland City	10 Gordon Street,Coburg, Moreland City	144.9480150	-37.7525840
61021	10 Lochinvar Street, Pascoe Vale South	Moreland City	10 Lochinvar Street,Pascoe Vale South, Moreland City	144.9451620	-37.7490380
119341	10 MORELAND STREET	Heritage Victoria	10 MORELAND STREET FOOTSCRAY, MARIBYRNONG CITY	144.90781	-37.79949
61023	10 Selbourne Street, Coburg	Moreland City	10 Selbourne Street,Coburg, Moreland City	144.9530800	-37.7520730
61024	10 Somali Street, Pascoe Vale South	Moreland City	10 Somali Street,Pascoe Vale South, Moreland City	144.9384700	-37.7415310
61025	10 Woodlands Avenue, Pascoe Vale South	Moreland City	10 Woodlands Avenue,Pascoe Vale South, Moreland City	144.9440090	-37.7492790
34158	10, 12-16 FOREST STREET, BENDIGO	Heritage Victoria	10-16 FOREST STREET BENDIGO, GREATER BENDIGO CITY	144.27698	-36.75959
9015	10-12 EXPLORATION LANE	Heritage Victoria	10-12 EXPLORATION LANE MELBOURNE, Melbourne City	144.96841	-37.80904
9769	10-12 KING STREET	Heritage Victoria	10-12 KING STREET MELBOURNE, MELBOURNE CITY	144.95765	-37.81993
9001	10-14 BENNETTS LANE	Heritage Victoria	10-14 BENNETTS LANE MELBOURNE, Melbourne City	144.96793	-37.80905
8941	10-14 PARK STREET	Heritage Victoria	10-14 PARK STREET MELBOURNE, Melbourne City	144.95540	-37.81285
15008	10-16 Davies Street	Hobsons Bay City	10-16  Davies Street NEWPORT, Hobsons Bay City	144.8873240	-37.8449640
8988	10-16 SUTHERLAND STREET	Heritage Victoria	10-16 SUTHERLAND STREET MELBOURNE, Melbourne City	144.96097	-37.81112
9765	10-22 SPENCER STREET	Heritage Victoria	10-22 SPENCER STREET MELBOURNE, Melbourne City	144.95523	-37.82048
9474	10-26 CROSSLEY STREET	Heritage Victoria	10-26 CROSSLEY STREET MELBOURNE, Melbourne City	144.97121	-37.81137
61026	100 Balmoral Avenue, Pascoe Vale South	Moreland City	100 Balmoral Avenue,Pascoe Vale South, Moreland City	144.9415380	-37.7393320
61027	100 Clarendon Street, Coburg	Moreland City	100 Clarendon Street,Coburg, Moreland City	144.9534550	-37.7479380
9022	100 LITTLE LONSDALE STREET	Heritage Victoria	100 LITTLE LONSDALE STEET MELBOURNE, Melbourne City	144.96873	-37.80914
61028	100 Melville Road, Pascoe Vale South	Moreland City	100 Melville Road,Pascoe Vale South, Moreland City	144.9456200	-37.7480720
9855	100-102 FLINDERS STREET	Heritage Victoria	100-102 FLINDERS STREET MELBOURNE, Melbourne City	144.97138	-37.81594
61029	101 Melville Road, Pascoe Vale South	Moreland City	101 Melville Road,Pascoe Vale South, Moreland City	144.9449990	-37.7479440
61030	102 Balmoral Avenue, Pascoe Vale South	Moreland City	102 Balmoral Avenue,Pascoe Vale South, Moreland City	144.9415530	-37.7392150
9023	102 LITTLE LONSDALE STREET	Heritage Victoria	102 LITTLE LONSDALE STREET MELBOURNE, Melbourne City	144.96867	-37.80915
61031	102 Melville Road, Pascoe Vale South	Moreland City	102 Melville Road,Pascoe Vale South, Moreland City	144.9455320	-37.7479810
9289	102-106 LITTLE BOURKE STREET	Heritage Victoria	102-106 LITTLE BOURKE STREET MELBOURNE, Melbourne City	144.96940	-37.81115
61032	103 Melville Road, Pascoe Vale South	Moreland City	103 Melville Road,Pascoe Vale South, Moreland City	144.9449110	-37.7478530
9842	103-105 FLINDERS LANE	Heritage Victoria	103-105 FLINDERS LANE MELBOURNE, MELBOURNE CITY	144.97098	-37.81557
9297	103-105 LONSDALE STREET	Heritage Victoria	103-105 LONSDALE STREET MELBOURNE, Melbourne City	144.96926	-37.81050
61033	104 Melville Road, Pascoe Vale South	Moreland City	104 Melville Road,Pascoe Vale South, Moreland City	144.9454790	-37.7478450
9925	104-106 FRANKLIN STREET	Heritage Victoria	104-106 FRANKLIN STREET MELBOURNE, MELBOURNE CITY	144.95935	-37.80809
9856	104-112 FLINDERS STREET	Heritage Victoria	104-112 FLINDERS STREET MELBOURNE, MELBOURNE CITY	144.97116	-37.81600
9628	105 ELIZABETH STREET	Heritage Victoria	105 ELIZABETH STREET MELBOURNE, MELBOURNE CITY	144.96346	-37.81582
9442	105 LITTLE BOURKE STREET	Heritage Victoria	105 LITTLE BOURKE STREET MELBOURNE, Melbourne City	144.96935	-37.81153
61035	105 Melville Road, Pascoe Vale South	Moreland City	105 Melville Road,Pascoe Vale South, Moreland City	144.9448340	-37.7477610
9024	106 LITTLE LONSDALE STREET	Heritage Victoria	106 LITTLE LONSDALE STREET MELBOURNE, Melbourne City	144.96861	-37.80917
61037	106 Melville Road, Pascoe Vale South	Moreland City	106 Melville Road,Pascoe Vale South, Moreland City	144.9453780	-37.7477800
9076	106-112 HARDWARE STREET	Heritage Victoria	106-112 HARDWARE LANE MELBOURNE, Melbourne City	144.96069	-37.81214
9736	107 COLLINS STREET	Heritage Victoria	107 COLLINS STREET MELBOURNE, MELBOURNE CITY	144.97032	-37.81466
9443	107 LITTLE BOURKE STREET	Heritage Victoria	107 LITTLE BOURKE STREET MELBOURNE, Melbourne City	144.96925	-37.81148
61039	107-109 Melville Road, Pascoe Vale South	Moreland City	107-109 Melville Road,Pascoe Vale South, Moreland City	144.9447120	-37.7476600
9298	107-111 LONSDALE STREET	Heritage Victoria	107-111 LONSDALE STREET MELBOURNE, Melbourne City	144.96913	-37.81054
9629	107-113 ELIZABETH STREET	Heritage Victoria	107-113 ELIZABETH STREET MELBOURNE, MELBOURNE CITY	144.96356	-37.81573
9924	108 FRANKLIN STREET	Heritage Victoria	108 FRANKLIN STREET MELBOURNE, MELBOURNE CITY	144.95927	-37.80822
61040	108 Melville Road, Pascoe Vale South	Moreland City	108 Melville Road,Pascoe Vale South, Moreland City	144.9451800	-37.7475690
9025	108-114 LITTLE LONSDALE STREET	Heritage Victoria	108-114 LITTLE LONSDALE STREET MELBOURNE, Melbourne City	144.96849	-37.80922
9444	109 LITTLE BOURKE STREET	Heritage Victoria	109 LITTLE BOURKE STREET MELBOURNE, Melbourne City	144.96922	-37.81150
9109	109-111 LITTLE LONSDALE STREET	Heritage Victoria	109-111 LITTLE LONSDALE STREET MELBOURNE, Melbourne City	144.96866	-37.80946
9737	109-113 COLLINS STREET	Heritage Victoria	109-113 COLLINS STREET MELBOURNE, MELBOURNE CITY	144.97023	-37.81468
9747	11 COLLINS STREET	Heritage Victoria	11 COLLINS STREET MELBOURNE, MELBOURNE CITY	144.97347	-37.81379
15006	11 Cox's Garden	Hobsons Bay City	11 Cox's Garden WILLIAMSTOWN, Hobsons Bay City	144.89857	-37.85827
61043	11 Lochinvar Street, Pascoe Vale South	Moreland City	11 Lochinvar Street,Pascoe Vale South, Moreland City	144.9444890	-37.7487640
61044	11 Phillips Street, Coburg	Moreland City	11 Phillips Street,Coburg, Moreland City	144.9536720	-37.7499430
61045	11 Selbourne Street, Coburg	Moreland City	11 Selbourne Street,Coburg, Moreland City	144.9520070	-37.7522930
61046	11 Somali Street, Pascoe Vale South	Moreland City	11 Somali Street,Pascoe Vale South, Moreland City	144.9382360	-37.7417970
9223	11-13 HEFFERNAN LANE	Heritage Victoria	11-13 HEFFERNAN LANE MELBOURNE, Melbourne City	144.96661	-37.81182
9572	11-15 COROMANDEL PLACE	Heritage Victoria	11-15 COROMANDEL PLACE MELBOURNE, Melbourne City	144.96905	-37.81317
9791	11-15 ELIZABETH STREET	Heritage Victoria	11-15 ELIZABETH STREET MELBOURNE, MELBOURNE CITY	144.96451	-37.81783
9276	11-15 WARATAH PLACE	Heritage Victoria	11-15 WARATAH PLACE MELBOURNE, Melbourne City	144.96694	-37.81150
9766	11-17 HIGHLANDER LANE	Heritage Victoria	11-17 HIGHLANDER LANE MELBOURNE, Melbourne City	144.95798	-37.81970
10007	11-17 JEFFCOTT STREET	Heritage Victoria	11-17 JEFFCOTT STREET WEST MELBOURNE, MELBOURNE CITY	144.95303	-37.81173
9611	11-19 BANK PLACE	Heritage Victoria	11-19 BANK PLACE MELBOURNE, Melbourne City	144.96020	-37.81659
9482	11-19 LIVERPOOL STREET	Heritage Victoria	11-19 LIVERPOOL STREET MELBOURNE, Melbourne City	144.97133	-37.81131
9475	11-25 CROSSLEY STREET	Heritage Victoria	11-25 CROSSLEY STREET MELBOURNE, Melbourne City	144.97102	-37.81143
9320	11-35 PUNCH LANE	Heritage Victoria	11-35 PUNCH LANE MELBOURNE, Melbourne City	144.97087	-37.81037
61047	110 Melville Road, Pascoe Vale South	Moreland City	110 Melville Road,Pascoe Vale South, Moreland City	144.9451030	-37.7474780
9923	110-112 FRANKLIN STREET	Heritage Victoria	110-112 FRANKLIN ST MELBOURNE, MELBOURNE CITY	144.95916	-37.80814
10028	111-125 A'BECKETT STREET	Heritage Victoria	111-125 A'BECKETT STREET MELBOURNE, Melbourne City	144.96019	-37.80975
61049	112 Melville Road, Pascoe Vale South	Moreland City	112 Melville Road,Pascoe Vale South, Moreland City	144.9450150	-37.7473860
9445	113 LITTLE BOURKE STREET	Heritage Victoria	113 LITTLE BOURKE STREET MELBOURNE, Melbourne City	144.96911	-37.81156
9299	113 LONSDALE STREET	Heritage Victoria	113 LONSDALE STREET MELBOURNE, Melbourne City	144.96902	-37.81057
61050	113 Melville Road, Pascoe Vale South	Moreland City	113 Melville Road,Pascoe Vale South, Moreland City	144.9444920	-37.7474130
9110	113-115 LITTLE LONSDALE STREET	Heritage Victoria	113-115 LITTLE LONSDALE STREET MELBOURNE, Melbourne City	144.96856	-37.80947
61051	114 Melville Road, Pascoe Vale South	Moreland City	114 Melville Road,Pascoe Vale South, Moreland City	144.9449380	-37.7473030
9446	115 LITTLE BOURKE STREET	Heritage Victoria	115 LITTLE BOURKE STREET MELBOURNE, Melbourne City	144.96905	-37.81158
9300	115 LONSDALE STREET	Heritage Victoria	115 LONSDALE STREET MELBOURNE, Melbourne City	144.96893	-37.81060
61053	115 Melville Road, Pascoe Vale South	Moreland City	115 Melville Road,Pascoe Vale South, Moreland City	144.9443710	-37.7472840
9630	115-117 ELIZABETH STREET	Heritage Victoria	115-117 ELIZABETH STREET MELBOURNE, Melbourne City	144.96349	-37.81559
9077	115-123 HARDWARE STREET	Heritage Victoria	115-123 HARDWARE LANE MELBOURNE, Melbourne City	144.96040	-37.81211
9493	115-129 KING STREET	Heritage Victoria	115-129 KING STREET MELBOURNE, Melbourne City	144.95561	-37.81728
15020	116 Dover Road	Hobsons Bay City	116 Dover Road WILLIAMSTOWN, Hobsons Bay City	144.8972620	-37.8517460
9078	116 HARDWARE STREET	Heritage Victoria	116 HARDWARE LANE MELBOURNE, Melbourne City	144.96071	-37.81195
61055	116 Melville Road, Pascoe Vale South	Moreland City	116 Melville Road,Pascoe Vale South, Moreland City	144.9448490	-37.7472120
9292	116-118 LITTLE BOURKE STREET	Heritage Victoria	116-118 LITTLE BOURKE STREET MELBOURNE, Melbourne City	144.96901	-37.81127
9026	116-118 LITTLE LONSDALE STREET	Heritage Victoria	116-118 LITTLE LONSDALE STREET MELBOURNE, Melbourne City	144.96828	-37.80925
9447	117 LITTLE BOURKE STREET	Heritage Victoria	117 LITTLE BOURKE STREET MELBOURNE, Melbourne City	144.96899	-37.81160
9111	117-119 LITTLE LONSDALE STREET	Heritage Victoria	117-119 LITTLE LONSDALE STREET MELBOURNE, Melbourne City	144.96843	-37.80957
9301	117-121 LONSDALE STREET	Heritage Victoria	117-121 LONSDALE STREET MELBOURNE, Melbourne City	144.969	-37.8106
61057	118 Melville Road, Pascoe Vale South	Moreland City	118 Melville Road,Pascoe Vale South, Moreland City	144.9447950	-37.7471390
9963	118-120 A'BECKETT STREET	Heritage Victoria	118-120 A'BECKETT STREET MELBOURNE, MELBOURNE CITY	144.95982	-37.80930
9113	118-122 LONSDALE STREET	Heritage Victoria	118-122 LONSDALE STREET MELBOURNE, Melbourne City	144.96859	-37.81006
9656	119-121 SWANSTON STREET	Heritage Victoria	119-121 SWANSTON STREET MELBOURNE, MELBOURNE CITY	144.96592	-37.81489
9448	119-125 LITTLE BOURKE STREET	Heritage Victoria	119-125 LITTLE BOURKE STREET MELBOURNE, Melbourne City	144.96885	-37.81160
9459	12 BOURKE STREET	Heritage Victoria	12 BOURKE STREET MELBOURNE, Melbourne City	144.97252	-37.81125
15007	12 Cox's Garden	Hobsons Bay City	12 Cox's Garden WILLIAMSTOWN, Hobsons Bay City	144.89883	-37.85821
9168	12 GOLDIE PLACE	Heritage Victoria	12 GOLDIE PLACE MELBOURNE, Melbourne City	144.96079	-37.81338
61059	12 Gordon Street, Coburg	Moreland City	12 Gordon Street,Coburg, Moreland City	144.9480300	-37.7524580
61060	12 Lochinvar Street, Pascoe Vale South	Moreland City	12 Lochinvar Street,Pascoe Vale South, Moreland City	144.9450520	-37.7489280
9506	12 MCKILLOP STREET	Heritage Victoria	12 MCKILLOP STREET MELBOURNE, Melbourne City	144.96191	-37.81534
61061	12 Phillips Street, Coburg	Moreland City	12 Phillips Street,Coburg, Moreland City	144.9541010	-37.7496260
61062	12 Selbourne Street, Coburg	Moreland City	12 Selbourne Street,Coburg, Moreland City	144.9527970	-37.7520360
61064	12 Somali Street, Pascoe Vale South	Moreland City	12 Somali Street,Pascoe Vale South, Moreland City	144.9382890	-37.7415100
9219	12-14 CELESTIAL AVENUE	Heritage Victoria	12-14 CELESTIAL AVENUE MELBOURNE, Melbourne City	144.96640	-37.81186
8959	12-14 GUILDFORD LANE	Heritage Victoria	12-14 GUILDFORD LANE MELBOURNE, Melbourne City	144.96038	-37.81113
10058	12-14 LITTLE LA TROBE STREET	Heritage Victoria	12-14 LITTLE LA TROBE STREET MELBOURNE, MELBOURNE CITY	144.96303	-37.80907
9596	12-18 MEYERS PLACE	Heritage Victoria	12-18 MEYERS PLACE MELBOURNE, Melbourne City	144.97249	-37.81223
61065	120 Melville Road, Pascoe Vale South	Moreland City	120 Melville Road,Pascoe Vale South, Moreland City	144.9447170	-37.7470650
9293	120-122 LITTLE BOURKE STREET	Heritage Victoria	120-122 LITTLE BOURKE STREET MELBOURNE, Melbourne City	144.96892	-37.81132
9027	120-122 LITTLE LONSDALE STREET	Heritage Victoria	120-122 LITTLE LONSDALE STREET MELBOURNE, Melbourne City	144.96816	-37.80921
9498	120-138 KING STREET	Heritage Victoria	120-138 KING STREET MELBOURNE, Melbourne City	144.95642	-37.81703
9112	121 LITTLE LONSDALE STREET	Heritage Victoria	121 LITTLE LONSDALE STREET MELBOURNE, Melbourne City	144.96833	-37.80959
15016	121-123 Douglas Parade	Hobsons Bay City	121-123  Douglas Parade WILLIAMSTOWN, Hobsons Bay City	144.8969520	-37.8546420
9843	121-123 FLINDERS LANE	Heritage Victoria	121-123 FLINDERS LANE MELBOURNE, MELBOURNE CITY	144.97053	-37.81567
61066	122 Melville Road, Pascoe Vale South	Moreland City	122 Melville Road,Pascoe Vale South, Moreland City	144.9446410	-37.7469650
9575	122 RUSSELL STREET	Heritage Victoria	122 RUSSELL STREET MELBOURNE, Melbourne City	144.96872	-37.81342
61068	123 Melville Road, Pascoe Vale South	Moreland City	123 Melville Road,Pascoe Vale South, Moreland City	144.9442810	-37.7460120
9657	123 SWANSTON STREET	Heritage Victoria	123 SWANSTON STREET MELBOURNE, MELBOURNE CITY	144.96589	-37.81483
61069	124 Melville Road, Pascoe Vale South	Moreland City	124 Melville Road,Pascoe Vale South, Moreland City	144.9446100	-37.7468470
9964	124-126 A'BECKETT STREET	Heritage Victoria	124-126 A'BECKETT STREET MELBOURNE, Melbourne City	144.95959	-37.80936
9522	124-126 ELIZABETH STREET	Heritage Victoria	124-126 ELIZABETH STREET MELBOURNE, Melbourne City	144.96387	-37.81507
9294	124-126 LITTLE BOURKE STREET	Heritage Victoria	124-126 LITTLE BOURKE STREET MELBOURNE, Melbourne City	144.96877	-37.81131
9028	124-126 LITTLE LONSDALE STREET	Heritage Victoria	124-126 LITTLE LONSDALE STREET MELBOURNE, Melbourne City	144.96811	-37.80930
9429	124-128 BOURKE STREET	Heritage Victoria	124-128 BOURKE STREET MELBOURNE, Melbourne City	144.96927	-37.81207
9576	124-130 RUSSELL STREET	Heritage Victoria	124-130 RUSSELL STREET MELBOURNE, Melbourne City	144.96867	-37.81331
61071	125 Melville Road, Pascoe Vale South	Moreland City	125 Melville Road,Pascoe Vale South, Moreland City	144.9443090	-37.7458240
9844	125-127 FLINDERS LANE	Heritage Victoria	125-127 FLINDERS LANE MELBOURNE, MELBOURNE CITY	144.97041	-37.81568
9921	126 FRANKLIN STREET	Heritage Victoria	126 FRANKLIN STREET MELBOURNE, MELBOURNE CITY	144.95885	-37.80838
61072	126 Melville Road, Pascoe Vale South	Moreland City	126 Melville Road,Pascoe Vale South, Moreland City	144.9449760	-37.7467440
61074	127 Melville Road, Pascoe Vale South	Moreland City	127 Melville Road,Pascoe Vale South, Moreland City	144.9443480	-37.7456620
10029	127-141 A'BECKETT STREET	Heritage Victoria	127-141 A'BECKETT STREET MELBOURNE, Melbourne City	144.96000	-37.81009
9919	128-130 FRANKLIN STREET	Heritage Victoria	128-130 FRANKLIN STREET MELBOURNE, MELBOURNE CITY	144.95873	-37.80837
9029	128-130 LITTLE LONSDALE STREET	Heritage Victoria	128-130 LITTLE LONSDALE STREET MELBOURNE, Melbourne City	144.96805	-37.80933
9523	128-132 ELIZABETH STREET	Heritage Victoria	128-132 ELIZABETH STREET MELBOURNE, Melbourne City	144.96383	-37.81499
9965	128-136 A'BECKETT STREET	Heritage Victoria	128-136 A'BECKETT STREET MELBOURNE, MELBOURNE CITY	144.95948	-37.80945
61076	129 Melville Road, Pascoe Vale South	Moreland City	129 Melville Road,Pascoe Vale South, Moreland City	144.9443740	-37.7455180
9845	129-131 FLINDERS LANE	Heritage Victoria	129-131 FLINDERS LANE MELBOURNE, MELBOURNE CITY	144.97024	-37.81570
10093	129-137 FRANKLIN STREET (ALSO 453-457 ELIZABETH STREET)	Heritage Victoria	129-137 FRANKLIN STREET and 453-457 ELIZABETH STREET MELBOURNE, Melbourne City	144.96017	-37.80846
14995	13 Champion Road	Hobsons Bay City	13 Champion Road WILLIAMSTOWN NORTH, Hobsons Bay City	144.8872570	-37.8570190
61079	13 Gordon Street, Coburg	Moreland City	13 Gordon Street,Coburg, Moreland City	144.9476400	-37.7525860
61080	13 Lochinvar Street, Pascoe Vale South	Moreland City	13 Lochinvar Street,Pascoe Vale South, Moreland City	144.9443670	-37.7486630
61081	13 Phillips Street, Coburg	Moreland City	13 Phillips Street,Coburg, Moreland City	144.9537000	-37.7497630
61082	13 Selbourne Street, Coburg	Moreland City	13 Selbourne Street,Coburg, Moreland City	144.9518490	-37.7522630
61083	13 Somali Street, Pascoe Vale South	Moreland City	13 Somali Street,Pascoe Vale South, Moreland City	144.9380660	-37.7417760
9385	13 SOMERSET PLACE	Heritage Victoria	13 SOMERSET PLACE MELBOURNE, Melbourne City	144.96238	-37.81393
9819	13 SWANSTON STREET	Heritage Victoria	13 SWANSTON STREET MELBOURNE, MELBOURNE CITY	144.96689	-37.81717
61084	13 The Grove, Coburg	Moreland City	13 The Grove,Coburg, Moreland City	144.9673880	-37.7513970
9016	13-15 EXPLORATION LANE	Heritage Victoria	13-15 EXPLORATION LANE MELBOURNE, Melbourne City	144.96812	-37.80903
8960	13-15 GUILDFORD LANE	Heritage Victoria	13-15 GUILDFORD LANE MELBOURNE, Melbourne City	144.96030	-37.81133
9366	13-15 HARDWARE STREET	Heritage Victoria	13-15 HARDWARE LANE MELBOURNE, Melbourne City	144.96142	-37.81427
9899	13-25 DUDLEY STREET	Heritage Victoria	13-25 DUDLEY STREET MELBOURNE, MELBOURNE CITY	144.95184	-37.80981
9857	130-132 FLINDERS STREET	Heritage Victoria	130-132 FLINDERS STREET MELBOURNE, MELBOURNE CITY	144.97055	-37.81627
61086	131 Melville Road, Pascoe Vale South	Moreland City	131 Melville Road,Pascoe Vale South, Moreland City	144.9443890	-37.7454010
9563	131-135 BOURKE STREET	Heritage Victoria	131-135 BOURKE STREET MELBOURNE, Melbourne City	144.96948	-37.81300
9494	131-135 KING STREET	Heritage Victoria	131-135 KING STREET MELBOURNE, Melbourne City	144.95551	-37.81708
9030	132 LITTLE LONSDALE STREET	Heritage Victoria	132 LITTLE LONSDALE STREET MELBOURNE, Melbourne City	144.96799	-37.80935
9577	132 RUSSELL STREET	Heritage Victoria	132 RUSSELL STREET MELBOURNE, Melbourne City	144.96862	-37.81319
9295	132-138 LITTLE BOURKE STREET	Heritage Victoria	132-138 LITTLE BOURKE STREET MELBOURNE, Melbourne City	144.96851	-37.81139
61088	132-140 Melville Road, Pascoe Vale South	Moreland City	132-140 Melville Road,Pascoe Vale South, Moreland City	144.9446920	-37.7463260
61090	133 Melville Road, Pascoe Vale South	Moreland City	133 Melville Road,Pascoe Vale South, Moreland City	144.9444040	-37.7452750
9846	133-135 FLINDERS LANE	Heritage Victoria	133-135 FLINDERS LANE MELBOURNE, MELBOURNE CITY	144.97016	-37.81572
9739	133-139 COLLINS STREET	Heritage Victoria	133-139 COLLINS STREET MELBOURNE, Melbourne City	144.96940	-37.81492
9524	134 ELIZABETH STREET	Heritage Victoria	134 ELIZABETH STREET MELBOURNE, Melbourne City	144.96379	-37.81492
9578	134 RUSSELL STREET	Heritage Victoria	134 RUSSELL STREET MELBOURNE, Melbourne City	144.96859	-37.81314
9858	134-136 FLINDERS STREET	Heritage Victoria	134-136 FLINDERS STREET MELBOURNE, MELBOURNE CITY	144.97044	-37.81629
9552	134-142 SWANSTON STREET	Heritage Victoria	134-142 SWANSTON STREET MELBOURNE, Melbourne City	144.96631	-37.81430
9031	134-144 LITTLE LONSDALE STREET	Heritage Victoria	134-144 LITTLE LONSDALE STREET MELBOURNE, Melbourne City	144.96780	-37.80939
61092	135 Melville Road, Pascoe Vale South	Moreland City	135 Melville Road,Pascoe Vale South, Moreland City	144.9444300	-37.7451500
35068	135 O'HERNS ROAD FARMING COMPLEX	Heritage Victoria	135 O'HERNS ROAD EPPING, WHITTLESEA CITY	145.01	-37.63
14991	135-137 Cecil Street	Hobsons Bay City	135-137  Cecil Street WILLIAMSTOWN, Hobsons Bay City	144.8999190	-37.8622200
9527	135-137 SWANSTON STREET	Heritage Victoria	135-137 SWANSTON STREET and 256-262 LITTLE COLLINS STREET MELBOURNE, Melbourne City	144.96578	-37.81449
9525	136-140 ELIZABETH STREET	Heritage Victoria	136-140 ELIZABETH STREET MELBOURNE, Melbourne City	144.96375	-37.81484
61095	137 Melville Road, Pascoe Vale South	Moreland City	137 Melville Road,Pascoe Vale South, Moreland City	144.9444450	-37.7450150
9847	137-139 FLINDERS LANE	Heritage Victoria	137-139 FLINDERS LANE MELBOURNE, MELBOURNE CITY	144.97005	-37.81573
9564	137-141 BOURKE STREET	Heritage Victoria	137-141 BOURKE STREET MELBOURNE, Melbourne City	144.96918	-37.81280
9449	137-143 LITTLE BOURKE STREET	Heritage Victoria	137-143 LITTLE BOURKE STREET MELBOURNE, Melbourne City	144.96853	-37.81210
9968	138-140 A'BECKETT STREET	Heritage Victoria	138-140 A'BECKETT STREET MELBOURNE, MELBOURNE CITY	144.95935	-37.80942
9859	138-140 FLINDERS STREET	Heritage Victoria	138-140 FLINDERS STREET MELBOURNE, MELBOURNE CITY	144.97035	-37.81637
61098	139 Melville Road, Pascoe Vale South	Moreland City	139 Melville Road,Pascoe Vale South, Moreland City	144.9444830	-37.7448710
9977	139-141 FRANKLIN STREET	Heritage Victoria	139-141 FRANKLIN STREET MELBOURNE, MELBOURNE CITY	144.95996	-37.80857
9528	139-141 SWANSTON STREET	Heritage Victoria	139-141 SWANSTON STREET MELBOURNE, Melbourne City	144.96574	-37.81441
9302	139-143 LONSDALE STREET	Heritage Victoria	139-143 LONSDALE STREET MELBOURNE, Melbourne City	144.96823	-37.81080
10080	13A VICTORIA STREET	Heritage Victoria	13A VICTORIA STREET MELBOURNE, Melbourne City	144.96799	-37.80754
61100	13A? Somali Street, Pascoe Vale South	Moreland City	13A? Somali Street,Pascoe Vale South, Moreland City	144.9378890	-37.7417590
9460	14 BOURKE STREET	Heritage Victoria	14 BOURKE STREET MELBOURNE, Melbourne City	144.97247	-37.81126
9280	14 CORR'S LANE	Heritage Victoria	14 CORR'S LANE MELBOURNE, Melbourne City	144.96845	-37.81124
61102	14 Gordon Street, Coburg	Moreland City	14 Gordon Street,Coburg, Moreland City	144.9480670	-37.7523410
61103	14 Lever Street, Pascoe Vale South	Moreland City	14 Lever Street,Pascoe Vale South, Moreland City	144.9466210	-37.7496310
61104	14 Lochinvar Street, Pascoe Vale South	Moreland City	14 Lochinvar Street,Pascoe Vale South, Moreland City	144.9449860	-37.7488360
9507	14 MCKILLOP STREET	Heritage Victoria	14 MCKILLOP STREET MELBOURNE, Melbourne City	144.96188	-37.81527
61105	14 Mitchell Parade, Pascoe Vale South	Moreland City	14 Mitchell Parade,Pascoe Vale South, Moreland City	144.9359230	-37.7417210
61106	14 Phillips Street, Coburg	Moreland City	14 Phillips Street,Coburg, Moreland City	144.9541270	-37.7494730
61108	14 Somali Street, Pascoe Vale South	Moreland City	14 Somali Street,Pascoe Vale South, Moreland City	144.9381190	-37.7414980
9733	14 WATSON PLACE	Heritage Victoria	14 WATSON PLACE MELBOURNE, Melbourne City	144.96817	-37.81567
9967	14-16 ANTHONY STREET	Heritage Victoria	14-16 ANTHONY STREET MELBOURNE, MELBOURNE CITY	144.95930	-37.80923
9169	14-16 GOLDIE PLACE	Heritage Victoria	14-16 GOLDIE PLACE MELBOURNE, Melbourne City	144.96076	-37.81332
9450	14-16 MARKET LANE	Heritage Victoria	14-16 MARKET LANE MELBOURNE, Melbourne City	144.96946	-37.81187
9007	14-18 DAVISONS PLACE	Heritage Victoria	14-18 DAVISONS PLACE MELBOURNE, Melbourne City	144.96753	-37.80925
9224	14-18 HEFFERNAN LANE	Heritage Victoria	14-18 HEFFERNAN LANE MELBOURNE, Melbourne City	144.96683	-37.81173
9770	14-20 KING STREET	Heritage Victoria	14-20 KING STREET MELBOURNE, MELBOURNE CITY	144.95772	-37.81977
9863	14-20 RUSSELL STREET	Heritage Victoria	14-20 RUSSELL STREET MELBOURNE, MELBOURNE CITY	144.96999	-37.81618
9271	14-22 TATTERSALL'S LANE	Heritage Victoria	14-22 TATTERSALL'S LANE MELBOURNE, Melbourne City	144.96562	-37.81172
9499	140-146 KING STREET	Heritage Victoria	140-146 KING STREET MELBOURNE, Melbourne City	144.95629	-37.81674
9745	140-148 FLINDERS LANE	Heritage Victoria	140-148 FLINDERS LANE and 42-44 RUSSELL STREET MELBOURNE, Melbourne City	144.96975	-37.81557
61110	141 Melville Road, Pascoe Vale South	Moreland City	141 Melville Road,Pascoe Vale South, Moreland City	144.9445090	-37.7447460
9848	141-143 FLINDERS LANE	Heritage Victoria	141-143 FLINDERS LANE MELBOURNE, MELBOURNE CITY	144.96989	-37.81580
9020	141-149 LA TROBE STREET	Heritage Victoria	141-149 LA TROBE STREET MELBOURNE, Melbourne City	144.96749	-37.80877
61113	142 Melville Road, Pascoe Vale South	Moreland City	142 Melville Road,Pascoe Vale South, Moreland City	144.9447180	-37.7462090
9916	142-146 FRANKLIN STREET	Heritage Victoria	142-146 FRANKLIN STREET MELBOURNE, MELBOURNE CITY	144.95828	-37.80856
9296	142-160 LITTLE BOURKE STREET (ALSO 196-222 RUSSELL STREET)	Heritage Victoria	142-160 LITTLE BOURKE STREET MELBOURNE, Melbourne City	144.96799	-37.81137
61115	143 Melville Road, Pascoe Vale South	Moreland City	143 Melville Road,Pascoe Vale South, Moreland City	144.9445360	-37.7446110
9529	143 SWANSTON STREET	Heritage Victoria	143 SWANSTON STREET MELBOURNE, Melbourne City	144.96572	-37.81437
9565	143-145 BOURKE STREET	Heritage Victoria	143-145 BOURKE STREET MELBOURNE, Melbourne City	144.96905	-37.81278
9976	143-149 FRANKLIN STREET	Heritage Victoria	143-149 FRANKLIN STREET MELBOURNE, MELBOURNE CITY	144.95980	-37.80865
10030	143-151 A'BECKETT STREET	Heritage Victoria	143-151 A'BECKETT STREET and 334-346 LA TROBE STREET and 346-376 QUEEN STREET MELBOURNE, MELBOURNE CITY	144.95924	-37.81024
9912	143-153 THERRY STREET	Heritage Victoria	143-153 THERRY STREET and 450-468  QUEEN STREET MELBOURNE, MELBOURNE CITY	144.95840	-37.80790
61117	144 Melville Road, Pascoe Vale South	Moreland City	144 Melville Road,Pascoe Vale South, Moreland City	144.9447320	-37.7461280
9553	144 SWANSTON STREET	Heritage Victoria	144 SWANSTON STREET MELBOURNE, Melbourne City	144.96626	-37.81420
9969	144-148 A'BECKETT STREET	Heritage Victoria	144-148 A'BECKETT STREET MELBOURNE, MELBOURNE CITY	144.95912	-37.80956
9430	144-150 BOURKE STREET	Heritage Victoria	144-150 BOURKE STREET MELBOURNE, Melbourne City	144.96875	-37.81237
61119	145 Melville Road, Pascoe Vale South	Moreland City	145 Melville Road,Pascoe Vale South, Moreland City	144.9445500	-37.7444940
9530	145 SWANSTON STREET	Heritage Victoria	145 SWANSTON STREET MELBOURNE, Melbourne City	144.96571	-37.81433
9303	145-147 LONSDALE STREET	Heritage Victoria	145-147 LONSDALE STREET MELBOURNE, Melbourne City	144.96816	-37.81082
9849	145-149 FLINDERS LANE	Heritage Victoria	145-149 FLINDERS LANE MELBOURNE, MELBOURNE CITY	144.96976	-37.81583
61120	146 Melville Road, Pascoe Vale South	Moreland City	146 Melville Road,Pascoe Vale South, Moreland City	144.9447340	-37.7460380
9554	146 SWANSTON STREET	Heritage Victoria	146 SWANSTON STREET MELBOURNE, Melbourne City	144.96625	-37.81417
9032	146-148 LITTLE LONSDALE STREET	Heritage Victoria	146-148 LITTLE LONSDALE STREET MELBOURNE, Melbourne City	144.96757	-37.80946
61122	147 Melville Road, Pascoe Vale South	Moreland City	147 Melville Road,Pascoe Vale South, Moreland City	144.9445650	-37.7443680
9531	147 SWANSTON STREET	Heritage Victoria	147 SWANSTON STREET MELBOURNE, Melbourne City	144.96569	-37.81430
9566	147-149 BOURKE STREET	Heritage Victoria	147-149 BOURKE STREET MELBOURNE, Melbourne City	144.96898	-37.81280
61124	148 Melville Road, Pascoe Vale South	Moreland City	148 Melville Road,Pascoe Vale South, Moreland City	144.9447600	-37.7459400
9555	148 SWANSTON STREET	Heritage Victoria	148 SWANSTON STREET MELBOURNE, Melbourne City	144.96623	-37.81413
9915	148-152 FRANKLIN STREET (ALSO 422-428 FRANKLIN STREET)	Heritage Victoria	148-152 FRANKLIN STREET MELBOURNE, Melbourne City	144.95812	-37.80861
61126	149 Melville Road, Pascoe Vale South	Moreland City	149 Melville Road,Pascoe Vale South, Moreland City	144.9445910	-37.7442600
9532	149-153 SWANSTON STREET	Heritage Victoria	149-153 SWANSTON STREET MELBOURNE, Melbourne City	144.96566	-37.81422
9305	149-155 LONSDALE STREET	Heritage Victoria	149-155 LONSDALE STREET MELBOURNE, Melbourne City	144.96799	-37.81091
61128	15 Clarendon Street, Coburg	Moreland City	15 Clarendon Street,Coburg, Moreland City	144.9524120	-37.7515790
61130	15 Gordon Street, Coburg	Moreland City	15 Gordon Street,Coburg, Moreland City	144.9476660	-37.7524610
61131	15 Lochinvar Street, Pascoe Vale South	Moreland City	15 Lochinvar Street,Pascoe Vale South, Moreland City	144.9442790	-37.7485540
9508	15 MCKILLOP STREET	Heritage Victoria	15 MCKILLOP STREET MELBOURNE, Melbourne City	144.96168	-37.81546
61132	15 Phillips Street, Coburg	Moreland City	15 Phillips Street,Coburg, Moreland City	144.9537380	-37.7496190
61133	15 The Grove, Coburg	Moreland City	15 The Grove,Coburg, Moreland City	144.9676250	-37.7514280
9220	15-17 CELESTIAL AVENUE	Heritage Victoria	15-17 CELESTIAL AVENUE MELBOURNE, Melbourne City	144.96614	-37.81189
9107	15-17 JONES LANE	Heritage Victoria	15-17 JONES LANE MELBOURNE, Melbourne City	144.96848	-37.80981
9198	15-17 NIAGARA LANE	Heritage Victoria	15-17 NIAGARA LANE MELBOURNE, Melbourne City	144.96141	-37.81325
9972	15-19 ANTHONY STREET	Heritage Victoria	15-19 ANTHONY STREET MELBOURNE, MELBOURNE CITY	144.95887	-37.80916
9225	15-19 HEFFERNAN LANE	Heritage Victoria	15-19 HEFFERNAN LANE MELBOURNE, Melbourne City	144.96655	-37.81170
9820	15-19 SWANSTON STREET	Heritage Victoria	15-19 SWANSTON STREET MELBOURNE, MELBOURNE CITY	144.96685	-37.81709
61134	150 Melville Road, Pascoe Vale South	Moreland City	150 Melville Road,Pascoe Vale South, Moreland City	144.9447850	-37.7458320
9556	150 SWANSTON STREET	Heritage Victoria	150 SWANSTON STREET MELBOURNE, Melbourne City	144.96621	-37.81409
9831	150-162 FLINDERS STREET	Heritage Victoria	150-162 FLINDERS STREET MELBOURNE, Melbourne City	144.96940	-37.81648
61136	151 Melville Road, Pascoe Vale South	Moreland City	151 Melville Road,Pascoe Vale South, Moreland City	144.9446050	-37.7441430
9567	151-163 BOURKE STREET	Heritage Victoria	151-163 BOURKE STREET MELBOURNE, Melbourne City	144.96885	-37.81288
9975	151-165 FRANKLIN STREET	Heritage Victoria	151-165 FRANKLIN STREET MELBOURNE, Melbourne City	144.95955	-37.80901
61138	152 Melville Road, Pascoe Vale South	Moreland City	152 Melville Road,Pascoe Vale South, Moreland City	144.9448000	-37.7457060
9431	152-158 BOURKE STREET	Heritage Victoria	152-158 BOURKE STREET MELBOURNE, Melbourne City	144.96853	-37.81210
61141	154 Melville Road, Pascoe Vale South	Moreland City	154 Melville Road,Pascoe Vale South, Moreland City	144.9448260	-37.7455800
9557	154-156 SWANSTON STREET	Heritage Victoria	154-156 SWANSTON STREET MELBOURNE, Melbourne City	144.96618	-37.81402
9533	155 SWANSTON STREET	Heritage Victoria	155 SWANSTON STREET MELBOURNE, Melbourne City	144.96562	-37.81414
61143	156 Melville Road, Pascoe Vale South	Moreland City	156 Melville Road,Pascoe Vale South, Moreland City	144.9448290	-37.7454900
61145	157 Melville Road, Pascoe Vale South	Moreland City	157 Melville Road,Pascoe Vale South, Moreland City	144.9446860	-37.7436850
9306	157-159 LONSDALE STREET	Heritage Victoria	157-159 LONSDALE STREET MELBOURNE, Melbourne City	144.96787	-37.81094
9534	157-159 SWANSTON STREET	Heritage Victoria	157-159 SWANSTON STREET MELBOURNE, Melbourne City	144.96559	-37.81408
61146	158 Melville Road, Pascoe Vale South	Moreland City	158 Melville Road,Pascoe Vale South, Moreland City	144.9448540	-37.7453910
9033	158-162 LITTLE LONSDALE STREET	Heritage Victoria	158-162 LITTLE LONSDALE STREET MELBOURNE, Melbourne City	144.96719	-37.80953
9558	158-164 SWANSTON STREET	Heritage Victoria	158-164 SWANSTON STREET MELBOURNE, Melbourne City	144.96623	-37.81387
61148	159 Melville Road, Pascoe Vale South	Moreland City	159 Melville Road,Pascoe Vale South, Moreland City	144.9447120	-37.7435600
9486	159 SPRING STREET	Heritage Victoria	159 SPRING STREET MELBOURNE, Melbourne City	144.97249	-37.81103
9461	16 BOURKE STREET	Heritage Victoria	16 BOURKE STREET MELBOURNE, Melbourne City	144.97242	-37.81128
9221	16 CELESTIAL AVENUE	Heritage Victoria	16 CELESTIAL AVENUE MELBOURNE, Melbourne City	144.96638	-37.81181
61150	16 Clarendon Street, Coburg	Moreland City	16 Clarendon Street,Coburg, Moreland City	144.9526410	-37.7527450
61152	16 Gordon Street, Coburg	Moreland City	16 Gordon Street,Coburg, Moreland City	144.9480820	-37.7522160
10057	16 LITTLE LA TROBE STREET	Heritage Victoria	16 LITTLE LA TROBE STREET MELBOURNE, MELBOURNE CITY	144.96296	-37.80909
61153	16 Lochinvar Street, Pascoe Vale South	Moreland City	16 Lochinvar Street,Pascoe Vale South, Moreland City	144.9448530	-37.7487260
61154	16 Mitchell Parade, Pascoe Vale South	Moreland City	16 Mitchell Parade,Pascoe Vale South, Moreland City	144.9358700	-37.7415580
61155	16 Phillips Street, Coburg	Moreland City	16 Phillips Street,Coburg, Moreland City	144.9541410	-37.7493830
61156	16 Selbourne Street, Coburg	Moreland City	16 Selbourne Street,Coburg, Moreland City	144.9523440	-37.7519920
61157	16 Somali Street, Pascoe Vale South	Moreland City	16 Somali Street,Pascoe Vale South, Moreland City	144.9368860	-37.7413590
61158	16 The Grove, Coburg	Moreland City	16 The Grove,Coburg, Moreland City	144.9673450	-37.7517290
8961	16-18 GUILDFORD LANE	Heritage Victoria	16-18 GUILDFORD LANE MELBOURNE, Melbourne City	144.96025	-37.81112
9281	16-20 CORR'S LANE	Heritage Victoria	16-20 CORR'S LANE MELBOURNE, Melbourne City	144.96841	-37.81115
9483	16-20 LIVERPOOL STREET	Heritage Victoria	16-20 LIVERPOOL STREET MELBOURNE, Melbourne City	144.97156	-37.81106
9789	16-24 BOND STREET	Heritage Victoria	16-24 BOND STREET MELBOURNE, Melbourne City	144.96307	-37.81815
9938	16-24 JEFFCOTT STREET	Heritage Victoria	16-24 JEFFCOTT STREET WEST MELBOURNE, MELBOURNE CITY	144.95253	-37.81132
14992	160 Cecil Street	Hobsons Bay City	160 Cecil Street WILLIAMSTOWN, Hobsons Bay City	144.8999030	-37.8608050
9546	160 LITTLE COLLINS STREET	Heritage Victoria	160 LITTLE COLLINS STREET MELBOURNE, Melbourne City	144.96821	-37.81366
61159	160 Melville Road, Pascoe Vale South	Moreland City	160 Melville Road,Pascoe Vale South, Moreland City	144.9448810	-37.7452660
9432	160-162 BOURKE STREET	Heritage Victoria	160-162 BOURKE STREET MELBOURNE, Melbourne City	144.96848	-37.81245
61161	161 Melville Road, Pascoe Vale South	Moreland City	161 Melville Road,Pascoe Vale South, Moreland City	144.9447270	-37.7434160
9487	161 SPRING STREET	Heritage Victoria	161 SPRING STREET MELBOURNE, Melbourne City	144.97247	-37.81099
9535	161 SWANSTON STREET	Heritage Victoria	161 SWANSTON STREET MELBOURNE, Melbourne City	144.96556	-37.81401
9823	161-163 FLINDERS LANE	Heritage Victoria	161-163 FLINDERS LANE, Melbourne City	144.96909	-37.81604
61163	162 Melville Road, Pascoe Vale South	Moreland City	162 Melville Road,Pascoe Vale South, Moreland City	144.9449070	-37.7451400
9435	163 EXHIBITION STREET	Heritage Victoria	163 EXHIBITION STREET MELBOURNE, Melbourne City	144.97013	-37.81177
61165	163 Melville Road, Pascoe Vale South	Moreland City	163 Melville Road,Pascoe Vale South, Moreland City	144.9447540	-37.7432720
9536	163-165 SWANSTON STREET	Heritage Victoria	163-165 SWANSTON STREET MELBOURNE, Melbourne City	144.96554	-37.81395
9411	163-169 RUSSELL STREET	Heritage Victoria	163-169 RUSSELL STREET MELBOURNE, Melbourne City	144.96764	-37.81247
61166	164 Melville Road, Pascoe Vale South	Moreland City	164 Melville Road,Pascoe Vale South, Moreland City	144.9449210	-37.7450320
9832	164-170 FLINDERS STREET	Heritage Victoria	164-170 FLINDERS STREET MELBOURNE, MELBOURNE CITY	144.96909	-37.81671
9568	165 BOURKE STREET	Heritage Victoria	165 BOURKE STREET MELBOURNE, Melbourne City	144.96864	-37.81292
9824	165 FLINDERS STREET	Heritage Victoria	165 FLINDERS LANE MELBOURNE, MELBOURNE CITY	144.96901	-37.81605
61167	165 Melville Road, Pascoe Vale South	Moreland City	165 Melville Road,Pascoe Vale South, Moreland City	144.9447810	-37.7431370
9436	165-167 EXHIBITION STREET	Heritage Victoria	165-167 EXHIBITION STREET MELBOURNE, Melbourne City	144.97009	-37.81171
61169	166 Melville Road, Pascoe Vale South	Moreland City	166 Melville Road,Pascoe Vale South, Moreland City	144.9449360	-37.7448970
9455	166 RUSSELL STREET	Heritage Victoria	166 RUSSELL STREET MELBOURNE, Melbourne City	144.96822	-37.81232
9559	166 SWANSTON STREET	Heritage Victoria	166 SWANSTON STREET MELBOURNE, Melbourne City	144.96608	-37.81381
9547	166-186 LITTLE COLLINS STREET	Heritage Victoria	166-186 LITTLE COLLINS STREET MELBOURNE, Melbourne City	144.96787	-37.81377
61170	167 Melville Road, Pascoe Vale South	Moreland City	167 Melville Road,Pascoe Vale South, Moreland City	144.9448060	-37.7430200
9727	167-173 COLLINS STREET	Heritage Victoria	167-173 COLLINS STREET MELBOURNE, MELBOURNE CITY	144.96832	-37.81559
9825	167-173 FLINDERS LANE	Heritage Victoria	167-173 FLINDERS LANE MELBOURNE, MELBOURNE CITY	144.96884	-37.81614
9663	167-177 LITTLE COLLINS STREET	Heritage Victoria	167-177 LITTLE COLLINS STREET MELBOURNE, MELBOURNE CITY	144.96829	-37.81400
61171	168 Melville Road, Pascoe Vale South	Moreland City	168 Melville Road,Pascoe Vale South, Moreland City	144.9449620	-37.7447810
9456	168 RUSSELL STREET	Heritage Victoria	168 RUSSELL STREET MELBOURNE, Melbourne City	144.96820	-37.81227
9560	168 SWANSTON STREET	Heritage Victoria	168 SWANSTON STREET MELBOURNE, Melbourne City	144.96606	-37.81377
9433	168-174 BOURKE STREET	Heritage Victoria	168-174 BOURKE STREET MELBOURNE, Melbourne City	144.96824	-37.81247
9569	169 BOURKE STREET	Heritage Victoria	169 BOURKE STREET MELBOURNE, Melbourne City	144.96857	-37.81294
61172	169 Melville Road, Pascoe Vale South	Moreland City	169 Melville Road,Pascoe Vale South, Moreland City	144.9448220	-37.7428770
9437	169-171 EXHIBITION STREET	Heritage Victoria	169-171 EXHIBITION STREET MELBOURNE, Melbourne City	144.97008	-37.81165
61173	17 Clarendon Street, Coburg	Moreland City	17 Clarendon Street,Coburg, Moreland City	144.9524500	-37.7514440
61174	17 Gordon Street, Coburg	Moreland City	17 Gordon Street,Coburg, Moreland City	144.9477040	-37.7523350
61175	17 Lochinvar Street, Pascoe Vale South	Moreland City	17 Lochinvar Street,Pascoe Vale South, Moreland City	144.9441690	-37.7484340
9509	17 MCKILLOP STREET	Heritage Victoria	17 MCKILLOP STREET MELBOURNE, Melbourne City	144.96166	-37.81540
61176	17 Phillips Street, Coburg	Moreland City	17 Phillips Street,Coburg, Moreland City	144.9537510	-37.7495300
61177	17 Somali Street, Pascoe Vale South	Moreland City	17 Somali Street,Pascoe Vale South, Moreland City	144.9366630	-37.7416170
9386	17 SOMERSET PLACE	Heritage Victoria	17 SOMERSET PLACE MELBOURNE, Melbourne City	144.96243	-37.81386
61178	17 The Grove, Coburg	Moreland City	17 The Grove,Coburg, Moreland City	144.9678520	-37.7514500
9390	17 WARBURTON LANE	Heritage Victoria	17 WARBURTON LANE MELBOURNE, Melbourne City	144.96186	-37.81381
9002	17-19 BENNETTS LANE	Heritage Victoria	17-19 BENNETTS LANE MELBOURNE, Melbourne City	144.96771	-37.80921
9792	17-19 ELIZABETH STREET	Heritage Victoria	17-19 ELIZABETH STREET MELBOURNE, MELBOURNE CITY	144.96446	-37.81771
9367	17-19 HARDWARE STREET	Heritage Victoria	17-19 HARDWARE LANE MELBOURNE, Melbourne City	144.96137	-37.81419
9817	17-21 DEGRAVES STREET	Heritage Victoria	17-21 DEGRAVES STREET MELBOURNE, MELBOURNE CITY	144.96559	-37.81730
9277	17-21 WARATAH PLACE	Heritage Victoria	17-21 WARATAH PLACE MELBOURNE, Melbourne City	144.96679	-37.81144
8962	17-27 GUILDFORD LANE	Heritage Victoria	17-27 GUILDFORD LANE MELBOURNE, Melbourne City	144.96015	-37.81138
61179	170 Melville Road, Pascoe Vale South	Moreland City	170 Melville Road,Pascoe Vale South, Moreland City	144.9449770	-37.7446640
14964	171 Aitken Street	Hobsons Bay City	171 Aitken Street WILLIAMSTOWN, Hobsons Bay City	144.9004690	-37.8596790
9570	171 BOURKE STREET	Heritage Victoria	171 BOURKE STREET MELBOURNE, Melbourne City	144.96851	-37.81296
9328	171-173 KING STREET	Heritage Victoria	171-173 KING STREET MELBOURNE, Melbourne City	144.95527	-37.81608
9412	171-173 RUSSELL STREET	Heritage Victoria	171-173 RUSSELL STREET MELBOURNE, Melbourne City	144.96760	-37.81238
61180	172 Melville Road, Pascoe Vale South	Moreland City	172 Melville Road,Pascoe Vale South, Moreland City	144.9450030	-37.7445380
9561	172 SWANSTON STREET	Heritage Victoria	172 SWANSTON STREET MELBOURNE, Melbourne City	144.96603	-37.81373
9228	172-176 LITTLE BOURKE STREET	Heritage Victoria	172-176 LITTLE BOURKE STREET MELBOURNE, Melbourne City	144.96714	-37.81185
61181	173 Melville Road, Pascoe Vale South	Moreland City	173 Melville Road,Pascoe Vale South, Moreland City	144.9448870	-37.7425620
9438	173-175 EXHIBITION STREET	Heritage Victoria	173-175 EXHIBITION STREET MELBOURNE, Melbourne City	144.97006	-37.81159
61182	174 Melville Road, Pascoe Vale South	Moreland City	174 Melville Road,Pascoe Vale South, Moreland City	144.9450290	-37.7444210
9562	174 SWANSTON STREET	Heritage Victoria	174 SWANSTON STREET MELBOURNE, Melbourne City	144.96602	-37.81369
9382	174-176 QUEEN STREET	Heritage Victoria	174-176 QUEEN STREET MELBOURNE, Melbourne City	144.96078	-37.81429
61183	175 Melville Road, Pascoe Vale South	Moreland City	175 Melville Road,Pascoe Vale South, Moreland City	144.9449130	-37.7424370
9413	175 RUSSELL STREET	Heritage Victoria	175 RUSSELL STREET MELBOURNE, Melbourne City	144.96758	-37.81233
9571	175-177 BOURKE STREET	Heritage Victoria	175-177 BOURKE STREET MELBOURNE, Melbourne City	144.96843	-37.81299
9728	175-177 COLLINS STREET	Heritage Victoria	175-177 COLLINS STREET MELBOURNE, MELBOURNE CITY	144.96804	-37.81534
9826	175-177 FLINDERS LANE	Heritage Victoria	175-177 FLINDERS LANE MELBOURNE, MELBOURNE CITY	144.96869	-37.81619
9329	175-177 KING STREET	Heritage Victoria	175-177 KING STREET MELBOURNE, Melbourne City	144.95524	-37.81602
15000	176 Civic Parade	Hobsons Bay City	176 Civic Parade ALTONA, Hobsons Bay City	144.8248700	-37.8639830
61184	176 Melville Road, Pascoe Vale South	Moreland City	176 Melville Road,Pascoe Vale South, Moreland City	144.9450430	-37.7443040
9661	176-180 COLLINS STREET	Heritage Victoria	176-180 COLLINS STREET MELBOURNE, MELBOURNE CITY	144.96760	-37.81492
13913	176-186 CECIL STREET SOUTH MELBOURNE	Heritage Victoria	176-186 CECIL STREET and  DORCAS STREET SOUTH MELBOURNE, Port Phillip City	144.96175	-37.83356
61185	177 Melville Road, Pascoe Vale South	Moreland City	177 Melville Road,Pascoe Vale South, Moreland City	144.9449270	-37.7423470
9414	177 RUSSELL STREET	Heritage Victoria	177 RUSSELL STREET MELBOURNE, Melbourne City	144.96757	-37.81231
9439	177-179 EXHIBITION STREET	Heritage Victoria	177-179 EXHIBITION STREET MELBOURNE, Melbourne City	144.97002	-37.81152
61186	178 Melville Road, Pascoe Vale South	Moreland City	178 Melville Road,Pascoe Vale South, Moreland City	144.9450690	-37.7441970
10099	178-190 LITTLE BOURKE STREET	Heritage Victoria	178-190 LITTLE BOURKE STREET MELBOURNE, MELBOURNE CITY	144.96695	-37.81185
9729	179 COLLINS STREET	Heritage Victoria	179 COLLINS STREET MELBOURNE, Melbourne City	144.96792	-37.81537
9330	179 KING STREET	Heritage Victoria	179 KING STREET MELBOURNE, Melbourne City	144.95521	-37.81596
61187	179 Melville Road, Pascoe Vale South	Moreland City	179 Melville Road,Pascoe Vale South, Moreland City	144.9449540	-37.7422030
9415	179 RUSSELL STREET	Heritage Victoria	179 RUSSELL STREET MELBOURNE, Melbourne City	144.96753	-37.81226
9827	179-181 FLINDERS LANE	Heritage Victoria	179-181 FLINDERS LANE MELBOURNE, MELBOURNE CITY	144.96858	-37.81622
9537	179-183 BOURKE STREET	Heritage Victoria	179-183 BOURKE STREET MELBOURNE, Melbourne City	144.96798	-37.81311
9462	18 BOURKE STREET	Heritage Victoria	18 BOURKE STREET MELBOURNE, Melbourne City	144.97237	-37.81129
9222	18 CELESTIAL AVENUE	Heritage Victoria	18 CELESTIAL AVENUE MELBOURNE, Melbourne City	144.96637	-37.81179
61188	18 Clarendon Street, Coburg	Moreland City	18 Clarendon Street,Coburg, Moreland City	144.9526680	-37.7526110
9170	18 GOLDIE PLACE	Heritage Victoria	18 GOLDIE PLACE MELBOURNE, Melbourne City	144.96072	-37.81325
61190	18 Gordon Street, Coburg	Moreland City	18 Gordon Street,Coburg, Moreland City	144.9480960	-37.7520990
119343	18 HOPKINS STREET	Heritage Victoria	18 HOPKINS STREET FOOTSCRAY, MARIBYRNONG CITY	144.90746	-37.79988
9316	18 LITTLE BOURKE STREET	Heritage Victoria	18 LITTLE BOURKE STREET MELBOURNE, Melbourne City	144.97190	-37.81039
61191	18 Lochinvar Street, Pascoe Vale South	Moreland City	18 Lochinvar Street,Pascoe Vale South, Moreland City	144.9447760	-37.7486250
61192	18 Phillips Street, Coburg	Moreland City	18 Phillips Street,Coburg, Moreland City	144.9541550	-37.7493020
61193	18 Somali Street, Pascoe Vale South	Moreland City	18 Somali Street,Pascoe Vale South, Moreland City	144.9367160	-37.7413380
9613	18-20 BANK PLACE	Heritage Victoria	18-20 BANK PLACE MELBOURNE, Melbourne City	144.96053	-37.81643
9591	18-20 LITTLE COLLINS STREET	Heritage Victoria	18-20 LITTLE COLLINS STREET MELBOURNE, Melbourne City	144.97268	-37.81233
10056	18-20 LITTLE LA TROBE STREET	Heritage Victoria	18-20 LITTLE LA TROBE STREET MELBOURNE, Melbourne City	144.96283	-37.80913
9321	18-20 PUNCH LANE	Heritage Victoria	18-20 PUNCH LANE MELBOURNE, Melbourne City	144.97112	-37.81043
9451	18-24 MARKET LANE	Heritage Victoria	18-24 MARKET LANE MELBOURNE, Melbourne City	144.96941	-37.81175
8989	18-24 SUTHERLAND STREET	Heritage Victoria	18-24 SUTHERLAND STREET MELBOURNE, Melbourne City	144.96089	-37.81097
24045	180 GORDONS ROAD, SOUTH MORANG	Heritage Victoria	180 GORDONS ROAD  SOUTH MORANG, Whittlesea City	145.08261	-37.63567
61194	180 Melville Road, Pascoe Vale South	Moreland City	180 Melville Road,Pascoe Vale South, Moreland City	144.9451200	-37.7439570
61195	181 Melville Road, Pascoe Vale South	Moreland City	181 Melville Road,Pascoe Vale South, Moreland City	144.9449690	-37.7420680
9416	181 RUSSELL STREET	Heritage Victoria	181 RUSSELL STREET MELBOURNE, Melbourne City	144.96752	-37.81222
9331	181-183 KING STREET	Heritage Victoria	181-183 KING STREET MELBOURNE, Melbourne City	144.95518	-37.81590
9440	181-187 EXHIBITION STREET	Heritage Victoria	181-187 EXHIBITION STREET MELBOURNE, Melbourne City	144.96999	-37.81144
61196	182 Melville Road, Pascoe Vale South	Moreland City	182 Melville Road,Pascoe Vale South, Moreland City	144.9451240	-37.7438370
9357	183-185 ELIZABETH STREET	Heritage Victoria	183-185 ELIZABETH STREET MELBOURNE, Melbourne City	144.96276	-37.81398
9828	183-185 FLINDERS LANE	Heritage Victoria	183-185 FLINDERS LANE MELBOURNE, MELBOURNE CITY	144.96852	-37.81632
9339	184 KING STREET	Heritage Victoria	184 KING STREET MELBOURNE, Melbourne City	144.95572	-37.81571
61197	184 Melville Road, Pascoe Vale South	Moreland City	184 Melville Road,Pascoe Vale South, Moreland City	144.9451500	-37.7437290
14993	185 Cecil Street	Hobsons Bay City	185 Cecil Street WILLIAMSTOWN, Hobsons Bay City	144.8990790	-37.8594020
9332	185 KING STREET	Heritage Victoria	185 KING STREET MELBOURNE, Melbourne City	144.95521	-37.81582
61198	185 Melville Road, Pascoe Vale South	Moreland City	185 Melville Road,Pascoe Vale South, Moreland City	144.9450100	-37.7418340
10026	185-187 A'BECKETT STREET	Heritage Victoria	185-187 A'BECKETT STREET MELBOURNE, MELBOURNE CITY	144.95807	-37.81041
9538	185-187 BOURKE STREET	Heritage Victoria	185-187 BOURKE STREET MELBOURNE, Melbourne City	144.96786	-37.81314
9240	185-187 LONSDALE STREET	Heritage Victoria	185-187 LONSDALE STREET MELBOURNE, MELBOURNE CITY	144.96685	-37.81119
9417	185-187 RUSSELL STREET	Heritage Victoria	185-187 RUSSELL STREET MELBOURNE, Melbourne City	144.96750	-37.81217
9340	186 KING STREET	Heritage Victoria	186 KING STREET MELBOURNE, Melbourne City	144.95570	-37.81567
61199	186 Melville Road, Pascoe Vale South	Moreland City	186 Melville Road,Pascoe Vale South, Moreland City	144.9451650	-37.7436120
9829	187 FLINDERS LANE	Heritage Victoria	187 FLINDERS LANE MELBOURNE, Melbourne City	144.96838	-37.81636
9333	187 KING STREET	Heritage Victoria	187 KING STREET MELBOURNE, Melbourne City	144.95513	-37.81581
61200	187 Melville Road, Pascoe Vale South	Moreland City	187 Melville Road,Pascoe Vale South, Moreland City	144.9450620	-37.7415650
61201	188 Melville Road, Pascoe Vale South	Moreland City	188 Melville Road,Pascoe Vale South, Moreland City	144.9451910	-37.7434960
9341	188-190 KING STREET	Heritage Victoria	188-190 KING STREET MELBOURNE, Melbourne City	144.95568	-37.81562
9548	188-194 LITTLE COLLINS STREET	Heritage Victoria	188-194 LITTLE COLLINS STREET MELBOURNE, Melbourne City	144.96760	-37.81390
918	1888 BUILDING, PART OF FORMER MELBOURNE TEACHERS COLLEGE	Heritage Victoria	 THE UNIVERSITY OF MELBOURNE and 156-292 GRATTAN STREET PARKVILLE, Melbourne City	144.96322	-37.79974
9731	189 COLLINS STREET	Heritage Victoria	189 COLLINS STREET MELBOURNE, MELBOURNE CITY	144.96776	-37.81545
61202	189 Melville Road, Pascoe Vale South	Moreland City	189 Melville Road,Pascoe Vale South, Moreland City	144.9450770	-37.7414570
9418	189 RUSSELL STREET	Heritage Victoria	189 RUSSELL STREET MELBOURNE, Melbourne City	144.96747	-37.81212
9407	189-191 BOURKE STREET	Heritage Victoria	189-191 LITTLE BOURKE STREET MELBOURNE, Melbourne City	144.96696	-37.81219
9334	189-191 KING STREET	Heritage Victoria	189-191 KING STREET MELBOURNE, Melbourne City	144.95510	-37.81573
9539	189-191 LITTLE BOURKE STREET	Heritage Victoria	189-191 BOURKE STREET MELBOURNE, Melbourne City	144.96777	-37.81317
9241	189-191 LONSDALE STREET	Heritage Victoria	189-191 LONSDALE STREET MELBOURNE, Melbourne City	144.96676	-37.81122
9441	189-195 EXHIBITION STREET	Heritage Victoria	189-195 EXHIBITION STREET MELBOURNE, Melbourne City	144.96991	-37.81127
61205	19 Gordon Street, Coburg	Moreland City	19 Gordon Street,Coburg, Moreland City	144.9477300	-37.7522090
9108	19 JONES LANE	Heritage Victoria	19 JONES LANE MELBOURNE, Melbourne City	144.96845	-37.80974
9510	19 MCKILLOP STREET	Heritage Victoria	19 MCKILLOP STREET MELBOURNE, Melbourne City	144.96163	-37.81534
61206	19 Phillips Street, Coburg	Moreland City	19 Phillips Street,Coburg, Moreland City	144.9537540	-37.7494480
61207	19 Shaftsbury Street, Coburg	Moreland City	19 Shaftsbury Street,Coburg, Moreland City	144.9534400	-37.7525880
61208	19 Somali Street, Pascoe Vale South	Moreland City	19 Somali Street,Pascoe Vale South, Moreland City	144.9364930	-37.7416050
9387	19 SOMERSET PLACE	Heritage Victoria	19 SOMERSET PLACE MELBOURNE, Melbourne City	144.96240	-37.81380
9579	19-21 BOURKE STREET	Heritage Victoria	19-21 BOURKE STREET MELBOURNE, Melbourne City	144.97249	-37.81178
9311	19-21 LONSDALE STREET	Heritage Victoria	19-21 LONSDALE STREET MELBOURNE, Melbourne City	144.97152	-37.80982
9199	19-21 NIAGARA LANE	Heritage Victoria	19-21 NIAGARA LANE MELBOURNE, Melbourne City	144.96138	-37.81318
9837	19-25 RUSSELL STREET	Heritage Victoria	19-25 RUSSELL STREET MELBOURNE, MELBOURNE CITY	144.96926	-37.81618
9599	19-25 WINDSOR PLACE	Heritage Victoria	19-25 WINDSOR PLACE MELBOURNE, Melbourne City	144.97255	-37.81205
10062	19-29 A'BECKETT STREET	Heritage Victoria	19-29 A'BECKETT STREET MELBOURNE, Melbourne City	144.96273	-37.80891
61209	191 Melville Road, Pascoe Vale South	Moreland City	191 Melville Road,Pascoe Vale South, Moreland City	144.9451030	-37.7413220
9358	191-193 ELIZABETH STREET	Heritage Victoria	191-193 ELIZABETH STREET MELBOURNE, Melbourne City	144.96273	-37.81391
9419	191-193 RUSSELL STREET	Heritage Victoria	191-193 RUSSELL STREET MELBOURNE, Melbourne City	144.96745	-37.81207
61210	192 Melville Road, Pascoe Vale South	Moreland City	192 Melville Road,Pascoe Vale South, Moreland City	144.9452310	-37.7432530
9960	192-194 A'BECKETT STREET	Heritage Victoria	192-194 A'BECKETT STREET MELBOURNE, MELBOURNE CITY	144.95757	-37.80998
9342	192-194 KING STREET	Heritage Victoria	192-194 KING STREET MELBOURNE, Melbourne City	144.95564	-37.81554
9242	193 LONSDALE STREET	Heritage Victoria	193 LONSDALE STREET MELBOURNE, Melbourne City	144.96669	-37.81125
61211	193 Melville Road, Pascoe Vale South	Moreland City	193 Melville Road,Pascoe Vale South, Moreland City	144.9451180	-37.7411970
9335	193-195 KING STREET	Heritage Victoria	193-195 KING STREET MELBOURNE, Melbourne City	144.95508	-37.81566
9408	193-195 LITTLE BOURKE STREET	Heritage Victoria	193-195 LITTLE BOURKE STREET MELBOURNE, Melbourne City	144.96682	-37.81222
9540	193-199 BOURKE STREET	Heritage Victoria	193-199 BOURKE STREET MELBOURNE, Melbourne City	144.96765	-37.81320
11775	1930S SHALLOW ALLUVIAL SINKINGS	Heritage Victoria	LINTON-PIGGOREET ROAD LINTON, Golden Plains Shire	143.58067	-37.70401
61212	194 Melville Road, Pascoe Vale South	Moreland City	194 Melville Road,Pascoe Vale South, Moreland City	144.9452460	-37.7431270
8994	194-196 LITTLE LONSDALE STREET	Heritage Victoria	194-196 LITTLE LONSDALE STREET MELBOURNE, Melbourne City	144.96354	-37.81063
43620	195 CLARKE STREET	Heritage Victoria	195 CLARKE STREET NORTHCOTE, Darebin City	144.99	-37.77
1325	195 ELIZABETH STREET	Heritage Victoria	195 ELIZABETH STREET MELBOURNE, Melbourne City	144.96267	-37.81380
9359	195 ELIZABETH STREET	Heritage Victoria	195 ELIZABETH STREET MELBOURNE, Melbourne City	144.96268	-37.81380
9243	195 LONSDALE STREET	Heritage Victoria	195 LONSDALE STREET MELBOURNE, Melbourne City	144.96664	-37.81127
61213	195 Melville Road, Pascoe Vale South	Moreland City	195 Melville Road,Pascoe Vale South, Moreland City	144.9451570	-37.7410260
9420	195-197 RUSSELL STREET	Heritage Victoria	195-197 RUSSELL STREET MELBOURNE, Melbourne City	144.96741	-37.81199
61214	196 Melville Road, Pascoe Vale South	Moreland City	196 Melville Road,Pascoe Vale South, Moreland City	144.9452600	-37.7430280
9343	196-202 KING STREET	Heritage Victoria	196-202 KING STREET MELBOURNE, Melbourne City	144.95559	-37.81544
9307	196-220 RUSSELL STREET	Heritage Victoria	196-220 RUSSELL STREET MELBOURNE, Melbourne City	144.96799	-37.81137
9244	197 LONSDALE STREET	Heritage Victoria	197 LONSDALE STREET MELBOURNE, Melbourne City	144.96658	-37.81128
9360	197-199 ELIZABETH STREET	Heritage Victoria	197-199 ELIZABETH STREET MELBOURNE, Melbourne City	144.96266	-37.81376
9336	197-199 KING STREET	Heritage Victoria	197-199 KING STREET MELBOURNE, Melbourne City	144.95504	-37.81558
9230	198 LITTLE BOURKE STREET	Heritage Victoria	198 LITTLE BOURKE STREET MELBOURNE, Melbourne City	144.96667	-37.81195
61215	198 Melville Road, Pascoe Vale South	Moreland City	198 Melville Road,Pascoe Vale South, Moreland City	144.9452850	-37.7429390
8995	198-200 LITTLE LONSDALE STREET	Heritage Victoria	198-200 LITTLE LONSDALE STREET MELBOURNE, Melbourne City	144.96345	-37.81065
10025	199 A'BECKETT STREET	Heritage Victoria	199 A'BECKETT STREET and 394-400 LA TROBE STREET MELBOURNE, Melbourne City	144.95773	-37.81075
15018	199 Douglas Parade	Hobsons Bay City	199 Douglas Parade WILLIAMSTOWN, Hobsons Bay City	144.8942315	-37.8504080
61216	199 Melville Road, Pascoe Vale South	Moreland City	199 Melville Road,Pascoe Vale South, Moreland City	144.9451840	-37.7408640
119355	1B WHITEHALL STREET	Heritage Victoria	1B WHITEHALL STREET FOOTSCRAY, MARIBYRNONG CITY	144.9067	-37.79996
61220	2 Gordon Street, Coburg	Moreland City	2 Gordon Street,Coburg, Moreland City	144.9479340	-37.7530510
61221	2 Heliopolis Street, Pascoe Vale South	Moreland City	2 Heliopolis Street,Pascoe Vale South, Moreland City	144.9355740	-37.7403900
118810	2 HOPKINS STREET	Heritage Victoria	2  HOPKINS STREET FOOTSCRAY, MARIBYRNONG CITY	144.90968	-37.79953
61222	2 Lochinvar Street, Pascoe Vale South	Moreland City	2 Lochinvar Street,Pascoe Vale South, Moreland City	144.9454810	-37.7494220
9861	2 OLIVER LANE	Heritage Victoria	2 OLIVER LANE MELBOURNE, Melbourne City	144.97032	-37.81614
61223	2 Phillips Street, Coburg	Moreland City	2 Phillips Street,Coburg, Moreland City	144.9539690	-37.7502720
61224	2 Somali Street, Pascoe Vale South	Moreland City	2 Somali Street,Pascoe Vale South, Moreland City	144.9391490	-37.7416060
61225	2 The Grove, Coburg	Moreland City	2 The Grove,Coburg, Moreland City	144.9661847	-37.7514402
16661	2 Westcott Street	Greater Geelong City	2 Westcott Street NEWTOWN, Greater Geelong City	144.3483230	-38.1584370
61226	2 Woodlands Avenue, Pascoe Vale South	Moreland City	2 Woodlands Avenue,Pascoe Vale South, Moreland City	144.9458080	-37.7494990
9609	2-10 BANK PLACE	Heritage Victoria	2-10 BANK PLACE MELBOURNE, Melbourne City	144.96065	-37.81667
9270	2-12 TATTERSALL'S LANE	Heritage Victoria	2-12 TATTERSALL'S LANE MELBOURNE, Melbourne City	144.96579	-37.81208
21425	2-4 Drysdale Day Care 	Greater Geelong City	2 Elgin Street DRYSDALE, Greater Geelong City	144.5698625	-38.1754585
9383	2-4 RANKINS LANE	Heritage Victoria	2-4 RANKINS LANE MELBOURNE, Melbourne City	144.96206	-37.81372
8956	2-6 GUILDFORD LANE	Heritage Victoria	2-6 GUILDFORD LANE MELBOURNE, Melbourne City	144.96065	-37.81100
9768	2-8 KING STREET	Heritage Victoria	2-8 KING STREET MELBOURNE, MELBOURNE CITY	144.95767	-37.82005
9764	2-8 SPENCER STREET (ALSO 566-580 FLINDERS STREET)	Heritage Victoria	2-8 SPENCER STREET MELBOURNE, Melbourne City	144.95535	-37.82071
61227	20 Clarendon Street, Coburg	Moreland City	20 Clarendon Street,Coburg, Moreland City	144.9526930	-37.7525030
61229	20 Lochinvar Street, Pascoe Vale South	Moreland City	20 Lochinvar Street,Pascoe Vale South, Moreland City	144.9446770	-37.7485240
9597	20 MEYERS PLACE	Heritage Victoria	20 MEYERS PLACE MELBOURNE, Melbourne City	144.97236	-37.81208
61230	20 Mitchell Parade, Pascoe Vale South	Moreland City	20 Mitchell Parade,Pascoe Vale South, Moreland City	144.9352840	-37.7406190
119338	20 MORELAND STREET	Heritage Victoria	20 MORELAND STREET FOOTSCRAY, MARIBYRNONG CITY	144.90782	-37.79994
61231	20 Phillips Street, Coburg	Moreland City	20 Phillips Street,Coburg, Moreland City	144.9541580	-37.7492030
9690	20 RIDGEWAY PLACE	Heritage Victoria	20 RIDGWAY PLACE Melbourne, Melbourne City	144.97252	-37.81297
61233	20 Somali Street, Pascoe Vale South	Moreland City	20 Somali Street,Pascoe Vale South, Moreland City	144.9365470	-37.7413170
61234	20 The Grove, Coburg	Moreland City	20 The Grove,Coburg, Moreland City	144.9677860	-37.7517820
9226	20-22 HEFFERNAN LANE	Heritage Victoria	20-22 HEFFERNAN LANE MELBOURNE, Melbourne City	144.96679	-37.81161
9511	20-22 MCKILLOP STREET	Heritage Victoria	20-22 MCKILLOP STREET MELBOURNE, Melbourne City	144.96182	-37.81514
9003	20-24 BENNETTS LANE	Heritage Victoria	20-24 BENNETTS LANE MELBOURNE, Melbourne City	144.96783	-37.80884
8963	20-24 GUILDFORD LANE	Heritage Victoria	20-24 GUILDFORD LANE MELBOURNE, Melbourne City	144.96014	-37.81116
9573	20-26 COROMANDEL PLACE	Heritage Victoria	20-26 COROMANDEL PLACE MELBOURNE, Melbourne City	144.96927	-37.81303
9463	20-30 BOURKE STREET	Heritage Victoria	20-30 BOURKE STREET MELBOURNE, Melbourne City	144.97218	-37.81117
61235	200 Melville Road, Pascoe Vale South	Moreland City	200 Melville Road,Pascoe Vale South, Moreland City	144.9453090	-37.7428560
9245	201 LONSDALE STREET	Heritage Victoria	201 LONSDALE STREET MELBOURNE, Melbourne City	144.96646	-37.81129
61236	201 Melville Road, Pascoe Vale South	Moreland City	201 Melville Road,Pascoe Vale South, Moreland City	144.9451980	-37.7407560
9541	201-203 BOURKE STREET	Heritage Victoria	201-203 BOURKE STREET MELBOURNE, Melbourne City	144.96751	-37.81324
9361	201-209 ELIZABETH STREET	Heritage Victoria	201-209 ELIZABETH STREET MELBOURNE, Melbourne City	144.96261	-37.81366
9959	202 A'BECKETT STREET	Heritage Victoria	202 A'BECKETT STREET MELBOURNE, MELBOURNE CITY	144.95732	-37.81001
8996	202 LITTLE LONSDALE STREET	Heritage Victoria	202 LITTLE LONSDALE STREET MELBOURNE, Melbourne City	144.96337	-37.81068
61237	202 Melville Road, Pascoe Vale South	Moreland City	202 Melville Road,Pascoe Vale South, Moreland City	144.9453390	-37.7426420
9150	203-205 QUEEN STREET	Heritage Victoria	203-205 QUEEN STREET MELBOURNE, Melbourne City	144.95996	-37.81396
9125	203-207 KING STREET	Heritage Victoria	203-207 KING STREET MELBOURNE, Melbourne City	144.95497	-37.81539
9246	203-207 LONSDALE STREET	Heritage Victoria	203-207 LONSDALE STREET MELBOURNE, Melbourne City	144.96636	-37.81133
9232	204 LITTLE BOURKE STREET	Heritage Victoria	204 LITTLE BOURKE STREET MELBOURNE, Melbourne City	144.96655	-37.81199
61238	204 Melville Road, Pascoe Vale South	Moreland City	204 Melville Road,Pascoe Vale South, Moreland City	144.9453650	-37.7425080
10041	204-206 LA TROBE STREET	Heritage Victoria	204-206 LA TROBE STREET MELBOURNE, MELBOURNE CITY	144.96310	-37.80956
9958	204-236 A'BECKETT STREET	Heritage Victoria	204-236 A'BECKETT STREET MELBOURNE, Melbourne City	144.95679	-37.80995
9134	204-240 SPENCER STREET	Heritage Victoria	204-240 SPENCER STREET MELBOURNE, Melbourne City	144.95330	-37.81546
61239	205 Melville Road, Pascoe Vale South	Moreland City	205 Melville Road,Pascoe Vale South, Moreland City	144.9452440	-37.7405650
9542	205-207 BOURKE STREET	Heritage Victoria	205-207 BOURKE STREET MELBOURNE, Melbourne City	144.96743	-37.81327
9253	205-207 RUSSELL STREET	Heritage Victoria	205-207 RUSSELL STREET MELBOURNE, Melbourne City	144.96731	-37.81170
9233	206 LITTLE BOURKE STREET	Heritage Victoria	206 LITTLE BOURKE STREET MELBOURNE, Melbourne City	144.96650	-37.81200
61240	206 Melville Road, Pascoe Vale South	Moreland City	206 Melville Road,Pascoe Vale South, Moreland City	144.9453800	-37.7423730
9151	207 QUEEN STREEET	Heritage Victoria	207 QUEEN STREEET MELBOURNE, Melbourne City	144.95993	-37.81389
61241	207-209 Melville Road, Pascoe Vale South	Moreland City	207-209 Melville Road,Pascoe Vale South, Moreland City	144.9452520	-37.7404510
9401	207-209 SWANSTON STREET	Heritage Victoria	207-209 SWANSTON STREET MELBOURNE, Melbourne City	144.96505	-37.81290
61242	208 Melville Road, Pascoe Vale South	Moreland City	208 Melville Road,Pascoe Vale South, Moreland City	144.9454070	-37.7422380
10042	208-210 LA TROBE STREET	Heritage Victoria	208-210 LA TROBE STREET MELBOURNE, MELBOURNE CITY	144.96303	-37.80959
9234	208-210 LITTLE BOURKE STREET	Heritage Victoria	208-210 LITTLE BOURKE STREET MELBOURNE, Melbourne City	144.96642	-37.81203
9421	208-210 SWANSTON STREET	Heritage Victoria	208-210 SWANSTON STREET MELBOURNE, Melbourne City	144.96564	-37.81284
9126	209-211 KING STREET	Heritage Victoria	209-211 KING STREET MELBOURNE, Melbourne City	144.95493	-37.81529
9247	209-211 LONSDALE STREET	Heritage Victoria	209-211 LONSDALE STREET MELBOURNE, Melbourne City	144.96627	-37.81144
9254	209-211 RUSSELL STREET	Heritage Victoria	209-211 RUSSELL STREET MELBOURNE, Melbourne City	144.96728	-37.81164
9543	209-215 BOURKE STREET	Heritage Victoria	209-215 BOURKE STREET MELBOURNE, Melbourne City	144.96731	-37.81327
9409	209-225 LITTLE BOURKE STREET	Heritage Victoria	209-225 LITTLE BOURKE STREET MELBOURNE, Melbourne City	144.96633	-37.81243
9004	21 BENNETTS LANE	Heritage Victoria	21 BENNETTS LANE MELBOURNE, Melbourne City	144.96765	-37.80907
61243	21 Clarendon Street, Coburg	Moreland City	21 Clarendon Street,Coburg, Moreland City	144.9525020	-37.7512020
30776	21 COMMON ROAD INVERLEIGH	Heritage Victoria	21 COMMON ROAD  INVERLEIGH, GOLDEN PLAINS SHIRE	144.066	-38.097
61245	21 Gordon Street, Coburg	Moreland City	21 Gordon Street,Coburg, Moreland City	144.9477560	-37.7520930
9484	21 LIVERPOOL STREET	Heritage Victoria	21 LIVERPOOL STREET MELBOURNE, Melbourne City	144.97127	-37.81118
61246	21 Phillips Street, Coburg	Moreland City	21 Phillips Street,Coburg, Moreland City	144.9537670	-37.7493590
61247	21 Shaftsbury Street, Coburg	Moreland City	21 Shaftsbury Street,Coburg, Moreland City	144.9534890	-37.7524630
61248	21 The Grove, Coburg	Moreland City	21 The Grove,Coburg, Moreland City	144.9682940	-37.7514940
9973	21-23 ANTHONY STREET	Heritage Victoria	21-23 ANTHONY STREET MELBOURNE, MELBOURNE CITY	144.95882	-37.80906
9793	21-23 ELIZABETH STREET	Heritage Victoria	21-23 ELIZABETH STREET MELBOURNE, MELBOURNE CITY	144.96443	-37.81765
9452	21-23 MARKET LANE	Heritage Victoria	21-23 MARKET LANE MELBOURNE, Melbourne City	144.96916	-37.81182
9821	21-25 SWANSTON STREET	Heritage Victoria	21-25 SWANSTON STREET, Melbourne City	144.96680	-37.81698
9512	21-27 MCKILLOP STREET	Heritage Victoria	21-27 MCKILLOP STREET MELBOURNE, Melbourne City	144.96148	-37.81524
9388	21-27 SOMERSET PLACE	Heritage Victoria	21-27 SOMERSET PLACE MELBOURNE, Melbourne City	144.96236	-37.81372
10020	21-29 WILLS STREET	Heritage Victoria	21-29 WILLS STREET MELBOURNE, Melbourne City	144.95699	-37.81094
61249	210 Melville Road, Pascoe Vale South	Moreland City	210 Melville Road,Pascoe Vale South, Moreland City	144.9454330	-37.7421030
61250	211 Melville Road, Pascoe Vale South	Moreland City	211 Melville Road,Pascoe Vale South, Moreland City	144.9452780	-37.7403160
9152	211 QUEEN STREET	Heritage Victoria	211 QUEEN STREET MELBOURNE, Melbourne City	144.95990	-37.81384
9362	211-213 ELIZABETH STREET	Heritage Victoria	211-213 ELIZABETH STREET MELBOURNE, Melbourne City	144.96256	-37.81354
9402	211-213 SWANSTON STREET	Heritage Victoria	211-213 SWANSTON STREET MELBOURNE, Melbourne City	144.96502	-37.81285
9235	212 LITTLE BOURKE STREET	Heritage Victoria	212 LITTLE BOURKE STREET MELBOURNE, Melbourne City	144.96629	-37.81204
61251	212 Melville Road, Pascoe Vale South	Moreland City	212 Melville Road,Pascoe Vale South, Moreland City	144.9454480	-37.7419860
9422	212-214 SWANSTON STREET	Heritage Victoria	212-214 SWANSTON STREET MELBOURNE, Melbourne City	144.96561	-37.81277
9139	212-224 KING STREET	Heritage Victoria	212-224 KING STREET MELBOURNE, Melbourne City	144.95540	-37.81501
9952	213 FRANKLIN STREET	Heritage Victoria	213 FRANKLIN STREET MELBOURNE, MELBOURNE CITY	144.95782	-37.80973
61252	213 Melville Road, Pascoe Vale South	Moreland City	213 Melville Road,Pascoe Vale South, Moreland City	144.9453040	-37.7402080
9127	213-215 KING STREET	Heritage Victoria	213-215 KING STREET MELBOURNE, Melbourne City	144.95490	-37.81522
9255	213-217 RUSSELL STREET	Heritage Victoria	213-217 RUSSELL STREET MELBOURNE, Melbourne City	144.96723	-37.81154
9236	214 LITTLE BOURKE STREET	Heritage Victoria	214 LITTLE BOURKE STREET MELBOURNE, Melbourne City	144.96623	-37.81206
9363	215 ELIZABETH STREET	Heritage Victoria	215 ELIZABETH STREET MELBOURNE, Melbourne City	144.96252	-37.81346
9153	215 QUEEN STREET	Heritage Victoria	215 QUEEN STREET MELBOURNE, Melbourne City	144.95988	-37.81380
61253	215-217 Melville Road, Pascoe Vale South	Moreland City	215-217 Melville Road,Pascoe Vale South, Moreland City	144.9453180	-37.7401100
9403	215-217 SWANSTON STREET	Heritage Victoria	215-217 SWANSTON STREET MELBOURNE, Melbourne City	144.96500	-37.81279
9953	215-223 FRANKLIN STREET	Heritage Victoria	215-223 FRANKLIN STREET and 186-190  A'BECKETT STREET MELBOURNE, MELBOURNE CITY	144.95765	-37.80982
9423	216-218 SWANSTON STREET	Heritage Victoria	216-218 SWANSTON STREET MELBOURNE, Melbourne City	144.96558	-37.81270
9364	217 ELIZABETH STREET	Heritage Victoria	217 ELIZABETH STREET MELBOURNE, Melbourne City	144.96250	-37.81341
9128	217-219 KING STREET	Heritage Victoria	217-219 KING STREET MELBOURNE, Melbourne City	144.95486	-37.81515
9154	217-219 QUEEN STREET	Heritage Victoria	217-219 QUEEN STREET MELBOURNE, Melbourne City	144.95985	-37.81373
9248	217-223 LONSDALE STREET	Heritage Victoria	217-223 LONSDALE STREET MELBOURNE, Melbourne City	144.96601	-37.81160
61254	218 Melville Road, Pascoe Vale South	Moreland City	218 Melville Road,Pascoe Vale South, Moreland City	144.9455410	-37.7414830
9237	218-220 LITTLE BOURKE STREET	Heritage Victoria	218-220 LITTLE BOURKE STREET MELBOURNE, Melbourne City	144.96617	-37.81207
9256	219 RUSSELL STREET	Heritage Victoria	219 RUSSELL STREET MELBOURNE, Melbourne City	144.96718	-37.81143
9404	219 SWANSTON STREET	Heritage Victoria	219 SWANSTON STREET MELBOURNE, Melbourne City	144.96497	-37.81272
61255	22 Clarendon Street, Coburg	Moreland City	22 Clarendon Street,Coburg, Moreland City	144.9527200	-37.7523590
9279	22 COHEN PLACE	Heritage Victoria	22 COHEN PLACE MELBOURNE, Melbourne City	144.96923	-37.81074
9087	22 DREWERY PLACE	Heritage Victoria	22 DREWERY PLACE MELBOURNE, Melbourne City	144.96383	-37.81135
61257	22 Gordon Street, Coburg	Moreland City	22 Gordon Street,Coburg, Moreland City	144.9481490	-37.7518560
61258	22 Lochinvar Street, Pascoe Vale South	Moreland City	22 Lochinvar Street,Pascoe Vale South, Moreland City	144.9445890	-37.7484060
61259	22 Phillips Street, Coburg	Moreland City	22 Phillips Street,Coburg, Moreland City	144.9541830	-37.7491130
9322	22 PUNCH LANE	Heritage Victoria	22 PUNCH LANE MELBOURNE, Melbourne City	144.97108	-37.81036
9689	22 RIDGEWAY PLACE	Heritage Victoria	22 RIDGWAY PLACE Melbourne, Melbourne City	144.97250	-37.81292
61260	22 Somali Street, Pascoe Vale South	Moreland City	22 Somali Street,Pascoe Vale South, Moreland City	144.9363770	-37.7412960
9771	22-24 KING STREET	Heritage Victoria	22-24 KING STREET MELBOURNE, MELBOURNE CITY	144.95770	-37.81962
9282	22-26 CORR'S LANE	Heritage Victoria	22-26 CORR'S LANE MELBOURNE, Melbourne City	144.96834	-37.81100
9592	22-30 COLLINS STREET	Heritage Victoria	22-30 LITTLE COLLINS MELBOURNE, Melbourne City	144.97257	-37.81243
118806	22-30 MORELAND STREET	Heritage Victoria	22-30  MORELAND FOOTSCRAY, MARIBYRNONG CITY	144.90721	-37.80221
10055	22-32 LITTLE LA TROBE STREET	Heritage Victoria	22-32 LITTLE LA TROBE STREET MELBOURNE, MELBOURNE CITY	144.96268	-37.80917
9995	22-44 A'BECKETT STREET	Heritage Victoria	22-44 A'BECKETT STREET MELBOURNE, MELBOURNE CITY	144.96205	-37.80857
10100	220 BOURKE STREET	Heritage Victoria	220 BOURKE STREET MELBOURNE, MELBOURNE CITY	144.96675	-37.81291
61261	220 Melville Road, Pascoe Vale South	Moreland City	220 Melville Road,Pascoe Vale South, Moreland City	144.9455680	-37.7413490
61262	221 Melville Road, Pascoe Vale South	Moreland City	221 Melville Road,Pascoe Vale South, Moreland City	144.9453460	-37.7399210
9129	221-223 KING STREET	Heritage Victoria	221-223 KING STREET MELBOURNE, Melbourne City	144.95483	-37.81507
9257	221-223 RUSSELL STREET	Heritage Victoria	221-223 RUSSELL STREET MELBOURNE, Melbourne City	144.96715	-37.81135
9284	221-225 EXHIBITION STREET	Heritage Victoria	221-225 EXHIBITION STREET MELBOURNE, Melbourne City	144.96958	-37.81067
61263	222 Melville Road, Pascoe Vale South	Moreland City	222 Melville Road,Pascoe Vale South, Moreland City	144.9455820	-37.7412320
9308	222 RUSSELL STREET	Heritage Victoria	222 RUSSELL STREET MELBOURNE, Melbourne City	144.96778	-37.81116
9424	222-224 SWANSTON STREET	Heritage Victoria	222-224 SWANSTON STREET MELBOURNE, Melbourne City	144.96555	-37.81263
9405	222-236 BOURKE STREET	Heritage Victoria	222-236 BOURKE STREET MELBOURNE, Melbourne City	144.96648	-37.81290
61264	223 Melville Road, Pascoe Vale South	Moreland City	223 Melville Road,Pascoe Vale South, Moreland City	144.9453590	-37.7398670
61265	224 Melville Road, Pascoe Vale South	Moreland City	224 Melville Road,Pascoe Vale South, Moreland City	144.9455970	-37.7411150
9813	224-226 FLINDERS STREET	Heritage Victoria	224-226 FLINDERS STREET MELBOURNE, MELBOURNE CITY	144.96682	-37.81742
